X,Y,OBJECTID,BUSINESS_ID,NAME,ADDRESS,CITY,STATE,POSTAL_CODE,LATITUDE,LONGITUDE,PHONE_NUMBER
2104002.66872257,742226.095792294,1446561,000D0B7A-3048-98E7-046FBA1DC52B6D55,SUBWAY #12460,706 W PEACE ST ,RALEIGH,NC,27605,35.78886208,-78.64931864,19198340605
2096548.44052081,742468.188155875,1446562,00365192-A8F6-87E1-4D85FECDC569C6AB,CHECKERS PIZZA,2810 HILLSBOROUGH ST ,RALEIGH,NC,27607,35.78959693,-78.67445032,19198326522
2056904.76455899,680523.452465549,1446563,003B5816-EB2D-98FB-BB9A47422343117B,AVIATOR TASTING ROOM,209 TECHNOLOGY PARK  LN ,FUQUAY VARINA,NC,27526,35.61969631,-78.80852643,19195672337
2036281.98296998,731431.511082292,1446564,004B7CC3-9291-1A30-0887F2F9A7C9FEE5,Johnny's Pizza,1763 W Williams ST,APEX,NC,27523,35.75964934,-78.87770701,111111111111111
2112849.17465156,741976.117289633,1446565,0058F839-5056-A20B-FA849E6EB517DE0E,THE FALCON'S NEST AT ST. AUGUSTINE,1315 OAKWOOD AVE ,RALEIGH,NC,27601,35.78808582,-78.61949307,19198217646
2064159.68476039,785060.521934301,1446566,008A6B72-E823-5930-B24407ED48C781C8,ELEVATION BURGER,8301 BRIER CREEK  PKY ,RALEIGH,NC,27617,35.90685073,-78.78334742,19199992774
2098659.58852948,722681.953450218,1446567,00BF7B62-5056-A20B-FADB5F6951EC30EC,THE 19TH HOLE,1527 TRYON RD ,RALEIGH,NC,27603,35.73521897,-78.66755526,19197729987
2104495.00139931,775653.566010714,1446568,00CE5345-0311-776C-22695D158EEEA36E,LATIN QUARTERS,7335 SIX FORKS  RD ,RALEIGH,NC,27615,35.88069032,-78.64725808,19199008333
2151304.62628381,746028.415287375,1446569,00D18CF6-A9E0-C802-4912244307982DE1,DUNKIN DONUTS/BASKIN ROBBINS #331785,7137 KNIGHTDALE BLVD ,KNIGHTDALE,NC,27545,35.79874455,-78.48976003,19192179603
2095285.61496247,740602.543265134,1446570,00FC2D97-FE0A-549D-150427A6BFD57253,CLARK DINING HALL,221 JENSEN  DR ,RALEIGH,NC,27695,35.78448278,-78.67872874,19195134680
2095285.61496247,740602.543265134,1446571,00FF7E07-D5C4-3000-995FAB448FED097D,McKimmon Corner Cafe,1101 GORMAN ST ,RALEIGH,NC,27695,35.78448278,-78.67872874,19195158259
2124771.4611744,745943.518147469,1446572,0101A22A-D384-15BD-CA44676FD691DEA0,Pizza Hut # 1101,3691 NEW BERN  AVE ,RALEIGH,NC,27610,35.79885313,-78.57923704,19199008096
2106943.91677706,739813.515315637,1446573,010EBE88-D265-AB66-7F9392ED1ABEA2FC,DAILY PLANET CAFE,11   W JONES ST ,RALEIGH,NC,27601,35.78220511,-78.63943083,19197078060
2107169.15385939,722192.175230294,1446574,0124B480-C0F4-15B8-6D8AE96D00E0EB92,"WAKE COUNTY DETENTION CENTER KITCHEN &amp; STAFF KITCHEN",3301 HAMMOND RD ,RALEIGH,NC,27603,35.73379172,-78.63888755,
2081158.95325524,785805.954826638,1446575,012BD35B-E1D0-BE1F-ED0468117DE14D50,PEACE CHINA,13220 Strickland  RD ,RALEIGH,NC,27613,35.90878313,-78.72593809,19196769968
2079927.66634773,789341.895589381,1446576,012DAC8C-F601-1833-85FAF965A9614205,"SAMI'S SUBS &amp; MORE",10924 LEESVILLE RD ,RALEIGH,NC,27613,35.91850621,-78.73006348,19198484787
2124732.54491365,734438.337417722,1446577,01351F31-B3E9-348D-50CFFEE9ADAB2D18,HIBACHI 88,3416 POOLE RD ,RALEIGH,NC,27610,35.76724571,-78.57953261,19192311688
2134633.72196165,806414.192481458,1446578,014B14FD-B51C-8ADB-46806034E1BB70BB,PDQ WAKE FOREST,11690 NORTHPARK DR ,WAKE FOREST,NC,27587,35.96485726,-78.54504471,19196484221
2139112.74548389,800937.409143716,1446579,01852ACE-EDC8-958E-AFD055101633F2B3,SONIC DRIVE IN #6020,1925 S MAIN ST ,WAKE FOREST,NC,27587,35.94975468,-78.52999701,19195541209
2051254.96614732,726636.907154471,1446580,0191C04D-5056-A20B-FA179DF377F55536,COSTCO WHOLESALE #1206 FOOD COURT,1021 PINE PLAZA DR ,APEX,NC,27523,35.7464159,-78.82726689,19193316035
2094110.8138344,783030.534196377,1446581,01B874C7-5056-A20B-FAC01F14B4F6B8F2,DUCK DONUTS,8323 CREEDMOOR RD ,RALEIGH,NC,27613,35.90105252,-78.68223183,19198478300
2106905.12617223,738319.361807883,1446582,01CD8DA3-5056-A20B-FA3443A0195B59FD,RALEIGH RAW,7 W HARGETT ST ,RALEIGH,NC,27601,35.77810063,-78.63957991,19194000944
2104774.95884465,741058.937037379,1446583,01F7A0CB-0C0D-0E4F-4EE88C06A8A77091,Tremor,410 GLENWOOD AVE ,RALEIGH,NC,27603,35.78564805,-78.64672862,19198335535
2044709.69511715,696142.132842302,1446584,0220E23A-979D-5164-7BE7FC6D0623360A,"D'ANDREA'S DELI GRILL &amp; BAKERY",114 GRAND HILL PL ,HOLLY SPRINGS,NC,27540,35.66266499,-78.84948074,19193212010
2136347.06171082,773545.288403139,1446585,02AEBFE0-016D-48A0-929B27B0249E171D,SERGIO'S,7440 LOUISBURG RD ,RALEIGH,NC,27616,35.87454018,-78.53977,19198763116
2106657.08467357,738508.389645055,1446586,03CAD712-A908-077C-063797A421C4A6EA,"Linus &amp; Pepper's",126 S SALISBURY ST ,RALEIGH,NC,27601,35.77862242,-78.64041384,19196492154
2112604.8004684,770141.320145458,1446587,03D0B869-9790-0CB6-E27EB9965164CF3C,TRIBECA TAVERN,6004 FALLS OF NEUSE  RD ,RALEIGH,NC,27609,35.86546488,-78.61995347,19197909992
2069523.1110414,737027.049431875,1446588,03D87387-B1D6-0FC2-D98EF338C873D571,Primo Pizza NY Style,682 CARY TOWNE BLVD ,CARY,NC,27511,35.77485795,-78.76561938,19193802729
2107128.65131573,737222.703568131,1446589,03EAC77E-F639-BDD0-9AEA1321571A2A41,"HARVEST SUNDRIES &amp; DELI",411 FAYETTEVILLE ST ,RALEIGH,NC,27601,35.77508557,-78.63883977,19198329720
2092257.46616314,740551.527947217,1446590,04551FB6-5056-A20B-FA6FAC0A59E74340,DUNKIN' DONUTS #348417,3817 WESTERN BLVD ,RALEIGH,NC,27606,35.78436913,-78.68893912,19198586501
2094037.95702472,782102.380868971,1446591,04C66772-F34C-47FE-DF7C7422B3AAD872,BOTTLE MIXX,8111 CREEDMOOR RD ,RALEIGH,NC,27613,35.89850336,-78.68248786,19196151703
2063356.74476522,784594.823718712,1446592,0046D7E0-5056-A20B-FA728F89DE72F101,TAMARIND,8531-109 BRIER CREEK PKY ,RALEIGH,NC,27617,35.90557616,-78.78606215,19194063473
2144932.63541889,811065.738624543,1446593,04CC8E58-9ACE-3DC6-F01DF61775A1CB9E,WHITE STREET BREWING CO,218 S WHITE ST ,WAKE FOREST,NC,27587,35.97750081,-78.51016553,19196479439
2099786.80346665,741487.162886962,1446594,04D9B05A-C331-5A52-99122FA35457268C,CAFE SOO,2106  HILLSBOROUGH ST ,RALEIGH,NC,27607,35.78687212,-78.66354224,19198342244
2127464.74253324,746538.403440624,1446595,04DDFEB1-D595-D3B0-5236A77C1D38FC6E,FOUR BROTHERS PIZZA,3919 NEW BERN AVE ,RALEIGH,NC,27610,35.80045574,-78.57014599,19192310003
2075947.70088248,741901.679446384,1446596,04E10D16-9130-8BD5-E43CEB3D7DE37DC5,Sukhadia's Indian Cuisine,6715 Hillsborough Street,RALEIGH,NC,27606,35.78820637,-78.7439181,19193891200
2184407.37011756,743924.310899794,1446597,04E30B2B-A07E-2422-F0D9EDF0B772198B,WENDELL MART,2901 WENDELL BLVD ,WENDELL,NC,27591,35.79244552,-78.37817576,19193656686
2048881.52141915,712197.728027627,1446598,04EDD59D-EE66-E1B1-0B60F2C425C9662E,SUBWAY,1561 E WILLIAMS ST ,APEX,NC,27539,35.7067576,-78.83534627,19193677785
2145355.01351115,809862.124890044,1446599,04F3E596-B231-1D03-93F1694D92A5F804,BROOKS STREET BOWL,413 BROOKS  ST ,WAKE FOREST,NC,27587,35.97418866,-78.50875816,19194881651
2087086.10117781,768336.794226959,1446600,04F99854-009D-5139-7286AC66B1ED4DAF,DICKEY'S BARBECUE PIT #413,6552 GLENWOOD  AVE ,RALEIGH,NC,27612,35.86074545,-78.70609774,19194363995
2106718.51663731,759726.811118886,1446601,05008F2F-FCE8-88F4-5F095F39D806CD3D,THE YARD HOUSE #41,4208 SIX FORKS  RD ,RALEIGH,NC,27609,35.83691426,-78.63994726,19198812590
2033625.29044873,726171.413006708,1446602,05781571-D58F-1EE2-DB40597F49D3EEEB,SLICE OF NY PIZZA,2045 CREEKSIDE LANDING DR ,APEX,NC,27502,35.74520682,-78.88668196,19193870500
2146571.9116679,799112.459381551,1446603,0579154B-C7A1-D375-27348090C7400D84,One Whirled Cafe,3652 Rogers Road,WAKE FOREST,NC,27587,35.94464173,-78.50482681,19195621118
2112057.76350473,780928.767402545,1446604,05B2BE11-058B-AB3D-017B2DEC467345CE,Crafty Beer Shop,8450 Honeycutt Road,RALEIGH,NC,27615,35.89510574,-78.62166097,19197030874
2084191.18702015,772099.809666798,1446605,05FC4828-D045-412A-668B9DA54E40F115,FLYING BURRITO,4800 GROVE BARTON RD ,RALEIGH,NC,27613,35.87110639,-78.71583123,19197852734
2054333.53938648,747800.613514632,1446606,0602A9F6-C40F-A0C9-46C8CFDD00DA960D,"RUCKUS PIZZA PASTA &amp; SPIRITS #3",1101 MARKET CENTER  DR ,MORRISVILLE,NC,27560,35.80454378,-78.81676023,19193883500
2067156.84346423,669737.002581805,1446607,06120DD7-0E13-3205-5876E4A445033F6F,COMFORT INN FUQUAY VARINA BREAKFAST,7616 PURFOY RD ,FUQUAY VARINA,NC,27526,35.59000199,-78.77411286,19195579000
2033844.64794965,766964.522693291,1446608,061DBBC8-951E-4450-FE2D44BF5214156E,NET APP CAFE BLDG3,7301 KIT CREEK RD ,MORRISVILLE,NC,27560,35.85727617,-78.88578455,19194765671
2100757.17915057,742617.103868544,1446609,062A6A30-E1F1-135E-559A847185DBD6FB,SUGARLAND,2031 CAMERON ST ,RALEIGH,NC,27605,35.7899673,-78.66025735,19198352100
2046124.2346109,717321.782412052,1446610,065B70C3-5056-A20B-FA23A6C8033B0DD7,HWY 55 OF APEX,802 PERRY RD ,APEX,NC,27502,35.7208474,-78.84460695,19193033533
2110965.96385106,719430.063300461,1446611,011A703F-D8CE-C53D-62B3073DF4809ED4,GROCERY BOY JR,1912 W GARNER RD ,RALEIGH,NC,27529,35.72616468,-78.62612916,19197725018
2156771.16817223,788702.596999213,1446612,011EC6C8-EDD1-F08B-9F20505CA13E6374,FITZGERALD'S SEAFOOD RESTAURANT #1,308 SOUTHTOWN DR ,ROLESVILLE,NC,27571,35.9159,-78.47055821,19195623474
2111791.47499532,781069.552882135,1446613,0437B855-D417-62F4-46391C43BC92F92A,Antonio's Gourmet Market & Papas,8460-112 HONEYCUTT RD ,RALEIGH,NC,27615,35.89549529,-78.62255822,111111919887
2049643.45132573,686080.788791791,1446614,06CE930F-1422-201B-19E1DA19BBC31B7C,Michelangelos,7280 GB Alford  HWY ,HOLLY SPRINGS,NC,27540,35.63500069,-78.83292783,19195574992
2138197.0603074,800302.03738296,1446615,079E6726-EAF9-7770-92537BA708A7D696,Mackey's Pub,2101 S Main  ST ,WAKE FOREST ,NC,27587,35.94802112,-78.53310077,19195625570
2075506.31659465,733599.487389386,1446616,07AF62B1-CFE4-B82A-57CE42A324E9E64E,POLAR ICE HOUSE,1410 BUCK JONES RD ,RALEIGH,NC,27606,35.76540093,-78.74547814,19194602756
2065066.93524247,723733.310271382,1446617,082054EE-036C-19FC-4F864F10D111D508,TGI Friday's,2002 Kildaire Farm RD ,CARY,NC,27511,35.73836384,-78.78074125,19192338883
2058554.59393647,756521.414970636,1446618,085BF69A-3048-983B-2641CA581B73E5BF,FLIK INTERNATIONAL AT FIDELITY,11000 WESTON PKY ,CARY,NC,27513,35.82847987,-78.80246624,19194589264
2101961.02582423,739200.824939966,1446619,087D3E93-D57B-FAA4-E8C47A3916C49EDA,The Grille At Goodnight's & Goodnight's Comedy Club,861 W Morgan ST ,RALEIGH,NC,27603,35.78057044,-78.65623803,111111111111111
2104495.00139931,775653.566010714,1446620,08A5D2BA-3048-9838-FC96F889B762BA98,Rush Lounge,7361 SIX FORKS RD ,RALEIGH,NC,27615,35.88069032,-78.64725808,19198484782
2142537.9748539,731449.150482714,1446621,08B080BE-95E8-63F4-3A3FB5E8F57CEE9F,Carillon Assisted Living of Knightdale Dining,2408  HODGE RD ,KNIGHTDALE,NC,27545,35.75881159,-78.519561,19192666676
2065940.84786473,724253.602865964,1446622,05F4A2BC-9EA6-C527-77B0AB8B1405469E,FRESCA CAFE' AND GELATO,302 COLONADES  WAY ,RALEIGH,NC,27518,35.73978792,-78.77779248,19198518171
2136129.30033532,773927.585538805,1446623,06051288-0BE6-6884-8493B3CB6CA929B8,China Wok,7440-143 Louisburg RD ,RALEIGH,NC,27616,35.87559319,-78.54049905,19198629898
2144760.82769164,780671.40144746,1446624,0686332A-1422-201B-1921E27F28651CDF,Subway #41217,8410-140 Louisburg RD ,RALEIGH,NC,27616,35.89400635,-78.51125194,19192660300
2108527.26367597,742228.297231466,1446625,08BE77F0-BD78-5B44-23A13EBF2F5FB0C4,PIEBIRD,618 N PERSON ST ,RALEIGH,NC,27604,35.78882326,-78.6340625,19195087612
2073755.20297089,752560.4609503,1446626,08C8DB62-F40E-0251-F00B00951468069F,SAS BUILDING C CAFE,820 SAS CAMPUS DR ,CARY,NC,27513,35.81750425,-78.75122071,19195318651
2048530.86299972,695532.88537313,1446627,08FB1466-DF49-AD63-9BAD02404B09A9C0,SUBWAY #50592,601 N MAIN ST ,HOLLY SPRINGS,NC,27545,35.66097455,-78.83661982,19195574411
2156818.15626723,788915.346901804,1446628,09001E9C-D5DC-8D29-3B8577684E81ADD8,ANZIO'S PIZZA,252 SOUTHTOWN CIR ,ROLESVILLE,NC,27571,35.91648377,-78.47039569,19195548881
2143433.39661948,801314.37098822,1446629,09064FBA-F51A-70A9-5EF49F9709F54CDC,THAI CAFE #2,3309 ROGERS RD ,WAKE FOREST,NC,27587,35.95073316,-78.51539337,19194531679
2130658.43266815,745934.289163291,1446630,0955966E-B707-AD2C-284027D6708858FD,El Tapatio #4,4511 New Bern AVE,RALEIGH,NC,27610,35.79875761,-78.55938498,19192559161
2042379.44420023,760013.661923125,1446631,09C7AEAE-E078-149F-E8394F82D33BE4FC,Wendy's #11610583,4023 Davis DR,MORRISVILLE,NC,27560,35.83815015,-78.85701601,19194603966
2042054.72011214,759094.585021138,1446632,09CD5F39-BB6A-3A29-5521E52514E45641,Red Dragon,4051 Davis DR,MORRISVILLE,NC,27560,35.8356265,-78.85811603,19193881836
2106731.83288364,742451.632414714,1446633,09DD3249-C3D9-D51B-CDC29F7B05CA93DF,NIGHT KITCHEN BAKERY,10 W. FRANKLIN STREET,RALEIGH,NC,27604,35.78945486,-78.64011364,19842328907
2065085.28855222,722754.719380796,1446634,09F0350C-DCDB-B721-22A3A56A050176ED,HARRIS TEETER #257 STARBUCKS,2080 KILDAIRE FARM ROAD,CARY,NC,27518,35.73567522,-78.78068669,19192339483
2033120.51094648,762186.228444129,1446635,0A0205D6-9B17-15A1-A3CE3BE3FCCB54EA,TAZIKI'S RTP,7161 O'KELLY CHAPEL ROAD,CARY,NC,27519,35.84415135,-78.88824644,19193712693
2106943.91677706,739813.515315637,1446636,0A13BA57-C174-0E85-6B07EA03485E77D6,ACRO CAFE,11 W JONES ST ,RALEIGH,NC,27601,35.78220511,-78.63943083,19197337450
2087965.69718765,767620.170988292,1446637,0A34A22A-1422-201B-19C3CA251CE423A7,BRUEGGERS BAGELS #24,6274 GLENWOOD AVE ,RALEIGH,NC,27612,35.85876954,-78.70313649,19198812626
2044256.87515664,721608.265636966,1446638,0AAFCC59-CA38-9890-89731E940F61BA1F,Cantina 2 twenty five,225 N. SALEM STREET,APEX,NC,27502,35.73263171,-78.8508764,19194463366
2047256.74087606,766179.092833713,1446639,0ADF44D6-945D-E172-89AC65F2DFE2C98B,HYATT HOUSE FOOD SERVICE,10962 CHAPEL HILL RD ,MORRISVILLE,NC,27560,35.85506763,-78.84052711,19193885355
2066046.30434673,787755.841674879,1446640,0AF8005B-CE16-CCE0-932AFBE166566596,WING STOP #816,7880 ALEXANDER PROMENADE PLACE,RALEIGH,NC,27617,35.91424375,-78.77695631,19192373919
2049150.85355765,687614.208953291,1446641,0B2C513A-A8D1-22A5-27B591901FCF70F5,CHICK-FIL-A #2181,801 VILLAGE WALK  DR ,HOLLY SPRING,NC,27540,35.6392159,-78.83457704,19195670060
2094875.00915639,778807.165674627,1446642,0A45A024-1422-201B-19D5ABA79D67ACF5,BRUEGGERS BAGELS #143,7550-106 CREEDMOOR RD ,RALEIGH,NC,27613,35.88944343,-78.67969753,19198484902
2103928.19872715,722643.387582466,1446643,0B381E71-ADE8-82F3-FC739593FA1C1AC3,Bojangles #5,3301 S Wilmington ST ,RALEIGH,NC,27603,35.73506324,-78.64980268,19197724512
2113924.12788223,764438.082536221,1446644,0B4D3655-9183-E0D4-0A8CDF1A87CBBD98,TIJUANA FLATS #138,1310 E MILLBROOK RD ,RALEIGH,NC,27609,35.84978294,-78.61557526,19197906409
2111637.56552623,773586.192848876,1446645,0B0F9737-D86D-0F22-B093900D48E2C603,SMASHBURGER,6679-105 FALLS OF NEUSE ROAD,RALEIGH,NC,27615,35.87493875,-78.62317377,19198709230
2068154.53930348,757518.2896173,1446646,0B61CA48-DE79-9641-365232D17ECEDF22,TROPICAL SMOOTHIE 020 NC,817 BASS PRO LN ,CARY,NC,27513,35.83116175,-78.77007317,19193789333
2105000.81108323,718539.407929555,1446647,0B8CAD6F-9F39-6789-01B377329CF62C1A,MoonRunners Saloon,1506 US 70 HWY W ,GARNER,NC,27529,35.72377782,-78.64623771,19196625119
2138197.0603074,800302.03738296,1446648,0B9E3D12-B11A-1C55-EB0FCC2E3CD46B23,EURO CAFE,2101 S MAIN ST ,WAKE FOREST,NC,27587,35.94802112,-78.53310077,19197615002
2129823.72075489,807914.225570634,1446649,0C5157D2-CADC-8E92-01BEB1637A2B053F,Keith's BBQ and Catering,13037 Keith Store  RD ,WAKE FOREST,NC,27587,35.96903747,-78.56127609,19196186211
2118373.69378623,759528.5729983,1446650,0CE3979B-A039-CFC3-6B304DD3542E0063,TAQUERIA CINCO DE MAYO,2259 New Hope Church RD ,RALEIGH,NC,27604,35.83624718,-78.60062749,19194224933
2098864.66390672,741787.696734712,1446651,0CE827B2-FB6C-25E8-380B5FB77583D6F5,Dunkin Donuts-Baskin Robbins PC#342343,2316 Hillsborough St Ste 106,RALEIGH,NC,27607,35.78770631,-78.66664805,19198385255
2059535.0680254,697952.383486882,1446652,0CEBE91D-EDAB-D86D-EBC7B29B3EBEF7EF,LITTLE HEN,5160 SUNSET LAKE  RD ,APEX,NC,27539,35.66756646,-78.79955758,19193630000
2092358.20218214,744011.126014888,1446653,0CF9098D-D402-284E-2FA0C5F24F9614D3,JASMIN BISTRO,3801 HILLSBOROUGH ST ,RALEIGH,NC,27607,35.79387274,-78.68856288,19198351626
2111840.31872964,771508.393854886,1446654,0D049F23-D914-645B-5BBE16D45F81FC73,TENKO JAPAN,6325 FALLS OF NEUSE  RD ,RALEIGH,NC,27615,35.86922851,-78.62251606,19198764545
2076509.26340765,729389.459064052,1446655,0D0D9797-A3E9-42A7-C99E0AF1DFCD579A,WILD WING CAFE,2300 WALNUT  ST ,CARY,NC,27518,35.75382756,-78.74213421,19198030578
2096006.68110564,727355.78268522,1446656,0D17A191-EA58-02A6-1C12593EEF72A0B7,Pruitt Health - Raleigh Dining,2420 Lake Wheeler RD,RALEIGH,NC,27603,35.74808355,-78.67644314,19197550226
2102976.21080174,717301.238161802,1446657,0D71A75D-D665-A0EF-807BCD025AE2BAEC,BISCUITVILLE #184,4305 FAYETTEVILLE RD ,RALEIGH,NC,27603,35.72039578,-78.65307339,19198038112
2130977.8306514,798500.807061553,1446658,0D781320-0196-91B6-45AA697DB1F4C78C,DUNKIN DONUTS 348408,13600 NEW FALLS OF NEUSE RD ,RALEIGH,NC,27614,35.94316378,-78.55751775,19195560335
2101283.29522431,745482.742494211,1446659,0D86CC38-90AB-504B-CFE662D40469FA11,Zoes Kitchen,1028 OBERLIN RD ,RALEIGH,NC,27605,35.79783502,-78.65845011,19198380909
2119024.60488598,726574.793105468,1446660,0F37B006-D4E2-7054-55DA2C161E83A4F1,FRESH AND FRY SEAFOOD,2822 NEW BIRCH  DR ,RALEIGH,NC,27610,35.74570711,-78.59888069,19196152898
2102880.20443206,722487.738615543,1446661,0F4A8769-E8E3-7D8E-4F40C8675263904D,THE LATIN CORNER,421 CHAPANOKE RD ,RALEIGH,NC,27603,35.73464573,-78.65333581,19192648584
2124701.37010723,772061.107316375,1446662,0F7B6ECB-A771-FCF4-C152187E370E220E,Crazy Fire Mongolian Grill #8,7201 Old Wake Forest RD ,RALEIGH,NC,27616,35.87060485,-78.57909997,19198769000
2068467.80344073,757130.350760624,1446663,0F8E60EF-FA47-2FA8-36EBB349C4007C6F,FIREWURST,823 BASS PRO  LN ,RALEIGH,NC,27513,35.83009399,-78.76901939,19192340822
2126066.21580273,705943.092899129,1446664,0FCF1A50-B262-BB45-84CBD85EF5804DB5,Shuck'em Shack,1177 TIMBER DR E ,GARNER,NC,27529,35.68894454,-78.57544772,19197727035
2065063.01628706,747880.329234466,1446665,10059478-C540-1703-0F2CFAA3AD7FFDD8,BRAVO'S MEXICAN GRILL,208 GRANDE HEIGHTS DR ,CARY,NC,27513,35.804703,-78.7805746,19194813811
2086872.42312747,754957.38955538,1446666,0FECEB45-B2AE-76E8-77671B9858BA5FD6,"Rudinos's Pizza &amp; Grinders Sports Corner",3101-101 EDWARDS MILL RD ,RALEIGH,NC,27612,35.82399087,-78.70695216,19197864235
2122883.01711665,755232.748912796,1446667,100B15EA-15E7-74FA-752DECAD5927606A,PHO CALI,3310 CAPITAL  BLVD ,RALEIGH,NC,27604-3340,35.82439477,-78.5854745,19198787898
2050191.86853598,686536.631384045,1446668,100F694A-86A1-1842-7C1118D2F49043EE,MCDONALDS #32242,7100 GB ALFORD HWY ,HOLLY SPRINGS,NC,27540,35.63625053,-78.83107956,19195524071
,,1446669,10127DC9-0238-9FD7-DCABFDBB56041886,UNCORKED,105-111 SHADOWLAWN DR ,RALEIGH,NC,27614,,,111111119198
2107935.65790381,738483.076047376,1446670,10260,ROLY POLY,201  E HARGETT ST ,RALEIGH,NC,27601,35.77854007,-78.63610358,111111111111111
2069783.00061348,757061.103851885,1446671,10268,Umstead Hotel & Spa Pool Bar,100 Woodland Pond DR ,CARY,NC,27513,35.82989526,-78.76458306,111111111111111
2053145.59852089,732909.590475217,1446672,102BD5D6-9918-1501-C0F310627A616BAB,GOLDEN CHINA CHINESE RESTAURANT,2432 SW CARY PKY ,CARY,NC,27513,35.76363975,-78.82085718,19193807891
2064341.50624715,747665.031436712,1446673,102567C8-158A-D963-9E3C131A45EECF63,Arby's #6554,1031 Harrison AVE ,CARY,NC,27513,35.80411588,-78.78300948,19194691887
2060436.74896482,697675.438174635,1446674,1030ABD8-A8BB-ED7D-5D3813B21B3A6BF4,Rudino's,5217 Sunset Lake RD ,HOLLY SPRINGS,NC,27540,35.66680054,-78.79652372,111111111919
2087965.69718765,767620.170988292,1446675,104FD68A-10FF-100C-00D0DB759282A0B7,GINO'S PIZZA,6260 GLENWOOD AVE ,RALEIGH,NC,27612-2650,35.85876954,-78.70313649,19197837555
2067695.25085197,783685.192992046,1446676,10526,Capital Cabaret,6713 Mt Herman  RD ,MORRISVILLE,NC,27560,35.90305068,-78.77141936,111111111111111
2104469.09397081,740969.347977713,1446677,10561,C. GRACE,407 GLENWOOD AVE ,RALEIGH,NC,27603,35.78540491,-78.64776098,111111111111111
2075875.19446582,729172.437188387,1446678,10626B94-E736-E0A3-C0AAC0FC7FDC80D8,"CAPPOLLA'S PIZZA &amp; GRILL",2462 WALNUT ST ,CARY,NC,27518,35.75323584,-78.74427315,19198547777
2111379.65823364,773732.478645548,1446679,106E3C03-EFF1-EF8E-D1429DE4181BAB2F,Chick-fil-A #792,6701 FALLS OF NEUSE RD ,RALEIGH,NC,27615-5373,35.87534331,-78.62404244,19198454556
2091769.62986848,744215.460579962,1446680,1071EE5E-1226-9DA3-B05A180D943822C3,WAFFLE HOUSE #378,3909 HILLSBOROUGH ST,RALEIGH,NC,27607-5217,35.79443916,-78.69054542,19198331247
2124054.90519281,759328.173464715,1446681,10799,FLASHBACKS SPORTSBAR & LOUNGE,4004 CAPITAL BLVD ,RALEIGH,NC,27604,35.83563234,-78.58146313,111111111111111
2066378.73248765,743349.73954238,1446682,107A6D1D-103F-C532-FBE5DA646999368F,KOKO's Italian Kitchen,8306 Chapel Hill RD ,CARY,NC,27513,35.79224815,-78.77617181,19194613882
2107421.24521872,737774.45672971,1446683,108727C3-DF68-9215-BAE94296FF9EDA15,CLYDE COOPER'S BARBECUE,327 S WILMINGTON ST ,RALEIGH,NC,27601,35.77659846,-78.63784658,19198327614
2081459.29714273,682570.188529551,1446684,1089EAE9-91A5-E568-D745DD9818CEB333,NEW RAINBOW CHINESE RESTAURANT,3427 N Main ST ,FUQUAY-VARINA,NC,27526,35.62516136,-78.7258865,19195678272
2065063.01628706,747880.329234466,1446685,10972,THE GREAT,243 GRANDE HEIGHTS  DR ,CARY,NC,27513,35.804703,-78.7805746,111111111111111
2052783.95652765,766742.075631633,1446686,10AAB7A0-568B-ED86-1C7A14F3077A78C9,Daly Cafe and Pub at Holiday Inn,930 Airport BLVD ,MORRISVILLE,NC,27560,35.85658845,-78.82187156,19194651910
2091018.06313014,752341.510272712,1446687,10B95BE1-C6ED-6ED7-77651B9EDEF0A73C,RANDY'S PIZZA,2458 WYCLIFF RD ,RALEIGH,NC,27607,35.81676997,-78.692995,19193225990
2044901.6898119,743060.615120634,1446688,10CCCF7C-1447-1195-3E3A106F4313A94F,RED BOWL ASIAN BISTRO,2020 BOULDERSTONE WAY ,CARY,NC,27519,35.79156535,-78.84859346,19193889977
2152885.42364715,741699.840939298,1446689,10D20211-F51D-C965-289835667F477C67,MASSEY'S OLE TIMEY HOT DOGS,107 S FIRST AVE ,KNIGHTDALE,NC,27545,35.78683043,-78.48450505,
2082022.80388974,682370.714519054,1446690,10B98070-D0B7-842B-F98616B45457ED55,HWY 55 BURGERS SHAKES & FRIES,3421 N MAIN ST ,FUQUAY VARINA,NC,27526,35.62460903,-78.72399215,111111111111111
2089997.84108923,697591.795625374,1446691,10D8C2DC-15E0-B1E5-8A51E3137020AC26,SMITHFIELD'S CHICKEN'N BAR-B-Q,7911 FAYETTEVILLE RD ,RALEIGH,NC,27603,35.66636356,-78.69699987,19196619151
2049109.07509789,718791.387412459,1446692,10EF63F4-5056-A20B-FA2ABA1BD52A72BB,"XL SIDELINE, LLC",1016 INVESTMENT BLVD ,APEX,NC,27502,35.72487166,-78.83454276,19193872955
2082022.80388974,682370.714519054,1446693,10DD7DEB-1058-14BD-B40F144186CBE497,"HWY 55 BURGERS, SHAKES, &amp; FRIES",3421 N MAIN ST ,FUQUAY VARINA,NC,27526,35.62460903,-78.72399215,19195673007
2104495.00139931,775653.566010714,1446694,11056374-899F-A798-6087829993B5179F,LATIN QUARTERS,7335 SIX FORKS  RD ,RALEIGH,NC,27615,35.88069032,-78.64725808,19199008333
2111135.0376599,753005.63591297,1446695,110E1E5C-A811-A68A-34B211CA88A71F77,Arby's #7814,2601 Wake Forest RD ,RALEIGH,NC,27609,35.81840468,-78.62513234,19198326885
2095285.61496247,740602.543265134,1446696,110FC29B-C6B5-2C82-4A376391A25D5009,CASE DINING HALL,240 JETER DR ,RALEIGH,NC,27695,35.78448278,-78.67872874,19195152100
2101285.04587698,784434.184604302,1446697,10E3B019-E45C-6A2B-B7A3DB9F3521FDF5,Poppy Seed Market,8801-107 Lead Mine RD ,RALEIGH,NC,27615,35.90484309,-78.65799167,19198704997
2104597.31418681,740432.567227125,1446698,11048,Bruegger's Bagel Bakery #721,222-117 GLENWOOD AVE ,RALEIGH,NC,27603,35.78392897,-78.64733509,111111111111111
2156071.72797006,746526.625248969,1446699,11162B11-B128-14FC-31E5CEB56293B170,WAFFLE HOUSE #1279,7605 KNIGHTDALE BLVD ,KNIGHTDALE,NC,27545,35.80004488,-78.47367546,19192174112
2104545.56199373,741788.049752384,1446700,11207,Brooklyn Heights,605 Glenwood AVE ,RALEIGH,NC,27603,35.78765337,-78.64749335,111111111111111
2102880.20443206,722487.738615543,1446701,11419,Los Tres Vaqueros #2,435 CHAPANOKE RD ,RALEIGH,NC,27603,35.73464573,-78.65333581,111111111111111
2056357.06322657,740811.794487044,1446702,11080CC7-D654-1517-5E77B2CB01C523BF,THE CORNER TAVERN & GRILL,1303-03 NW MAYNARD RD ,CARY,NC,27513,35.78533307,-78.80998103,1111111111919
2081020.39611764,782018.085105792,1446703,1149E92F-113F-7D26-5A4FFD3E66E170B6,Arby's #6657,9221 Fairbanks RD ,RALEIGH,NC,27613,35.89837825,-78.72644123,19196764034
2145091.58523223,811656.905749291,1446704,11533,Backfins Crabhouse,110 S White  ST ,WAKE FOREST,NC,27587,35.97912263,-78.50961846,111111111111111
2130300.3457859,797621.138545305,1446705,11634540-F152-1361-31141526242A1DF3,Jumbo China,13200 Falls of Neuse RD ,RALEIGH,NC,27614,35.9407555,-78.55981965,19198618858
2060672.55787639,711258.992372304,1446706,116E4598-726F-F167-A6BCA48C0D11F8A9,MCDONALD'S #27548,3494 KILDAIRE FARM RD ,CARY,NC,27518,35.70411834,-78.79563566,19193639960
2052045.41436957,692931.24785988,1446707,1176893F-1422-201B-193949F379F53725,Quizno's,648 Holly Springs RD ,HOLLY SPRINGS,NC,27540,35.65381034,-78.82480349,111111111111111
2049059.25269099,744491.354385138,1446708,11877,Prestonwood Snack Bar,320 Prestonwood Pky ,CARY,NC,27513,35.79547778,-78.83456632,111111111111111
2089180.11011314,696497.619664133,1446709,118EAA48-8A96-11A0-B962115131B0B272,China Won,8109 Fayetteville RD ,RALEIGH,NC,27603,35.66336427,-78.69976409,19196629799
2051288.92277232,742810.826578215,1446710,11931AC8-6E33-A8E2-B902FFB96B7A6CE9,BACK 9 PUB,4220 NW CARY PKY ,CARY,NC,27513-8411,35.79085045,-78.82705749,19194623550
2107703.27057332,737984.914314047,1446711,11946,The Pour House Drink Stand,224 S BLOUNT ST,RALEIGH,NC,27601-1408,35.77717382,-78.63689319,111111111111111
2069124.92318948,742821.160218969,1446712,119C7464-EC3A-5C90-BBB9FCF47C655585,HIMALAYAN NEPALI CUISINE,746 E CHATHAM ST ,CARY,NC,27511,35.79077863,-78.76691591,19194660550
2125615.51690099,770388.27306363,1446713,11CB05FB-BE0E-A9E2-6BD99AC14041D1A0,STARBUCKS #8529,5959 TRIANGLE TOWN  BLVD ,RALEIGH,NC,27615,35.86599856,-78.57603863,19197922227
2124399.67812531,767524.857202545,1446714,11CD9A77-E76D-8CE2-8AA8A9257DE58C0A,MONA PITA MEDITERRANEAN GRILL,5260 CAPITAL BLVD ,RALEIGH,NC,27616,35.85814638,-78.580183,19194316500
2052045.41436957,692931.24785988,1446715,11D0CE2D-E2A5-1083-AAB6D57A7DB50406,China Best,632 Holly Springs RD ,HOLLY SPRINGS,NC,27540,35.65381034,-78.82480349,111111111111111
2112546.69920665,713078.363733545,1446716,116A52F7-1422-201B-19862EE247191797,Arby's #6335,1300 E 5th AVE ,GARNER,NC,27529,35.70869796,-78.62088507,19196622241
,,1446717,11752,US AIRWAYS CLUB,2400 TERMINAL BLVD ,RALEIGH,NC,27623,,,111111111111111
2061315.04248381,670820.307829887,1446718,117AA727-1100-178D-CBD6C473451776C6,AVIATOR SMOKEHOUSE,525 Broad  ST ,FUQUAY VARINA ,NC,27526,35.59301324,-78.79375457,19195672337
2057670.29583631,659640.490622625,1446719,11837200-AA38-6721-3BB117E0C1C4E631,MCDONALDS #28653,1409 MAIN ST ,FUQUAY VARINA,NC,27526,35.56231733,-78.80608783,19195523190
2116960.87968273,704472.434095055,1446720,11F12CBE-F016-1203-9B7713745444749C,"ANDY'S BURGERS, SHAKES, &amp; FRIES ",239 TIMBER DR ,GARNER,NC,27529,35.68500723,-78.60613102,19197792111
2045365.14853065,752897.714540884,1446721,11FC3AFA-C459-B41F-DF7EA001D48E0030,Smithfield Chicken & Bar-B-Que #95,3578 Davis DR ,MORRISVILLE,NC,27560,35.81858861,-78.84697957,19194682607
2145761.76991548,745289.926934958,1446722,1203FA0F-15C8-1394-17A014C9C61EB956,Chili's Grill and Bar #1183,6605 Knightdale BLVD ,KNIGHTDALE,NC,27545,35.79679257,-78.50846405,19192610167
2069499.6209309,756875.184276208,1446723,11C40812-1060-9D6F-AE04129347F2A7D2,"Umstead Hotel &amp; Spa Food Service",100 Woodland Pond ,CARY,NC,27513,35.82938634,-78.76554053,19194474000
2096087.1031889,738375.815435126,1446724,120A3868-5F88-9B27-A2D45882B8924B46,Ba-Da Wings,2161 Avent Ferry RD ,RALEIGH,NC,27606,35.77835817,-78.67605091,19198323902
2047242.80159947,766655.506579041,1446725,120E1727-B993-681E-4AB17E70A66B85B9,DAILY GRIND,10970 CHAPEL HILL RD ,MORRISVILLE,NC,27560,35.85637651,-78.84057157,19198648775
2087573.09725106,755539.812275052,1446726,1211CBE6-5056-A20B-FA5CA1452FE9AB92,FIREHOUSE SUBS #1138,4111 ED DR ,RALEIGH,NC,27612,35.82558522,-78.70458274,19197837102
2066578.44698323,671732.455611885,1446727,12181BF3-E7D2-14C8-0862573E7432ACC7,Mt Fuji,1311 E Broad ST ,FUQUAY VARINA,NC,27526,35.59548799,-78.77604319,19195571888
2053145.59852089,732909.590475217,1446728,121B4F3B-1289-AA2E-4A2513621F4F6FD8,Tangerine Cafe,2422 SW Cary PKY ,CARY,NC,27513,35.76363975,-78.82085718,19194688688
2045726.39715198,752727.976363301,1446729,1228358E-A6F1-1720-8C3FE2A44EB654E9,"ANDYS BURGERS SHAKES &amp; FRIES",3504 DAVIS DR ,MORRISVILLE,NC,27560,35.81812076,-78.84576194,19194650422
2065063.01628706,747880.329234466,1446730,122ADDD3-FA95-14B2-02CED2760FF2C1E3,THE CARY CAFE,212 GRANDE HEIGHTS DR ,CARY,NC,27513,35.804703,-78.7805746,19194699415
2037800.79489298,726530.639322385,1446731,122E691C-5056-A20B-FACF1B40502F3EAB,BELGIAN CAFE,1232 W WILLIAMS ST ,APEX,NC,27502,35.74617982,-78.87260887,19193725128
2181072.73013331,729295.068176717,1446732,12306CA5-5E18-9A9C-845686BB2BA12119,"Ralph's Grocery &amp; Deli/Grill",2317 Eagle Rock RD ,WENDELL,NC,27591,35.75231212,-78.38972318,19193662262
,,1446733,1232F0E3-5F90-F07F-45A9E7125C096F49,GYPSYS SHINY DINER,1550 BUCK JONES RD ,CARY,NC,27511,,,19194693663
2107147.60895498,737768.825835466,1446734,12457BF5-F77C-2B3E-A94626CE00F16883,BITTERSWEET,16 E MARTIN ST ,RALEIGH,NC,27601,35.77658573,-78.63876916,19199773829
2104433.36635198,718339.364366382,1446735,1246C801-5056-A20B-FAF9F9185CF25974,BALI-HAI,1571 US 70 HWY W ,GARNER,NC,27529,35.72323377,-78.64815188,19842005100
2124732.54491365,734438.337417722,1446736,12551,Subway #2615,3416 POOLE RD ,RALEIGH,NC,27610-2918,35.76724571,-78.57953261,111111111111111
2063102.64881673,741245.680430293,1446737,1255DD46-5056-A20B-FADDB1395CF9919E,"MATTHEWS HOUSE CAFE &amp; CATERING",317 W CHATHAM ST ,CARY,NC,27511,35.78648749,-78.78723389,19194671944
2069912.40028906,736177.437614053,1446738,12556,Shortie's Out of Sight Cafe,975 Walnut ST,RALEIGH,NC,27511,35.77252128,-78.76431379,111111111111111
2052231.00487764,766428.910575554,1446739,125E0F75-7254-92C5-785511D99C945655,Bojangles #37,1000 Claren CIR,MORRISVILLE,NC,27560,35.85573083,-78.82373946,19194607171
2108299.34877747,742784.646184385,1446740,12606D88-5056-A20B-FABC20ECA33DA0FC,STANDARD FOODS,205 E FRANKLIN ST ,RALEIGH,NC,27604,35.79035401,-78.63482408,19198184974
2037632.05441681,726173.518317461,1446741,1261A27C-74C9-58B7-FB57ABED4608E338,Panda Express #1352,1000 Beaver Creek Commons DR ,APEX,NC,27502,35.74519929,-78.87317907,19193626369
2089872.87447564,697124.784420297,1446742,1261ED73-DBC1-8008-313493D0AD1D67F6,Jersey Mike's #3042,7949 Fayetteville RD,RALEIGH,NC,27603,35.66508155,-78.69742539,19196610111
2134189.97284915,743725.021600217,1446743,126B09EF-76C5-14C1-0924154CCC9CC60A,DQ Grill and Chill #41609,5260 New Bern AVE ,RALEIGH,NC,27610,35.79264454,-78.54750981,19197920127
2045726.39715198,752727.976363301,1446744,127318E7-14CF-FBAF-4341170F855920B5,MORRISVILLE DELI,3524 DAVIS DR ,MORRISVILLE,NC,27560,35.81812076,-78.84576194,19193803767
2110894.1916849,753711.662716135,1446745,126909A7-120F-101B-F94F10A74EC8B093,JUMBO CHINA,404-183 E SIX FORKS RD ,RALEIGH,NC,27609-7869,35.82034681,-78.62593575,19195468858
2091769.62986848,744215.460579962,1446746,127E751E-5056-A20B-FA5DA14C288A696F,WAFFLE HOUSE #378,3909 HILLSBOROUGH ST ,RALEIGH,NC,27603,35.79443916,-78.69054542,19198331247
2104710.38384256,775612.386631131,1446747,128FB42F-BD6D-1793-69A08B8D4A165612,NEW GRAND ASIA,7371 SIX FORKS  RD ,RALEIGH,NC,27615,35.88057509,-78.64653152,111111111111111
2136358.87828822,801175.310242712,1446748,12710175-CB1B-15ED-1D328B502B7A6011,"ANDY'S BURGERS, SHAKES, & FRIES",11216-106 CAPITAL BLVD ,WAKE FOREST,NC,27587,35.95044368,-78.53929729,19195549747
2103243.51276056,781976.344375625,1446749,12903B17-7644-F0F5-407914433970878E,Chick-fil-A #1963,8661 Six Forks RD ,RALEIGH,NC,27615,35.89807227,-78.65140772,19198486715
2103051.98099139,718472.412000552,1446750,12910F57-A907-9A8A-80BADC0952CDF83E,Zaxby's Restaurant,4150 FAYETTEVILLE RD,RALEIGH,NC,27603-3606,35.72361266,-78.65280432,19196617772
2114832.57816507,744247.471014634,1446751,1278E474-5BE8-6D81-E17BD3DD16826553,Lam's Garden Restaurant,1100-113 Raleigh BLVD ,RALEIGH,NC,27610,35.79430477,-78.61277558,19198282118
,,1446752,12803,GORDON BIERSCH,2400 JOHN BRANTLEY BLVD ,RDU AIRPORT,NC,27623,,,111111111111111
2064646.88686998,736467.268727303,1446753,1291B65A-F78D-1574-DD8E1227B665051A,ATLAS CUISINE.,914 KILDAIRE FARM  RD ,CARY,NC,27511-3923,35.77335058,-78.7820625,19193083306
2056057.80660723,740985.205557555,1446754,1291FBA8-1805-186E-937613F25B65F04B,"THE CORNER TAVERN &amp; GRILL",1301 NW MAYNARD  RD ,CARY,NC,27513,35.78581105,-78.81098892,19194600088
2088277.45509431,766204.684646055,1446755,12942085-5056-A20B-FAC88A7CCB887A1C,DOS TAQUITOS,6101 GLENWOOD AVE ,RALEIGH,NC,27612,35.85487832,-78.70209872,19197873373
2091018.06313014,752341.510272712,1446756,12A7AE02-5056-A20B-FACA72873B490B29,CHICK-FIL-A #03376,3770 LAKE BOONE TRL ,RALEIGH,NC,27607,35.81676997,-78.692995,19194202471
2038507.43193115,740569.153568134,1446757,12ACA07B-D946-A155-296C46706D556878,HIGHCRAFT BEER MARKET,2716 NC 55 HWY ,CARY,NC,27519,35.78474547,-78.87016558,19192676593
2199730.76007439,754508.796292469,1446758,12C14274-1670-122A-ED39C62237E611D7,Good Taste Chinese Restaurant,532 W Gannon AVE ,ZEBULON,NC,27597,35.8212487,-78.32626437,19194041218
2044709.23251964,754202.829712793,1446759,12C959E9-5056-A20B-FA24A04FB308FEA0,FOOD LION #2196 DELI,3609 DAVIS DR ,MORRISVILLE,NC,27560,35.82217686,-78.84918533,19194694195
2070149.75972249,735066.093380049,1446760,12DAC2A0-BB25-CD7B-E93CD3E7AACF865E,"Five Guys Burgers &amp; Fries #NC0144",712 SE Maynard RD ,CARY,NC,27511,35.76946653,-78.76352254,19194677577
2042054.72011214,759094.585021138,1446761,12ED9BCB-D5EB-12F0-E885EF981BC94C01,Randy's Pizza,4129 Davis DR ,MORRISVILLE,NC,27560,35.8356265,-78.85811603,19194683737
2137703.14298815,814419.192875624,1446762,12ECC03D-5056-A20B-FA17359351256942,DON JULIO MEXICAN RESTAURANT,12516-104 CAPITAL BLVD ,WAKE FOREST,NC,27587,35.98680854,-78.53454582,19842351537
2065091.99490364,741689.199556381,1446763,12EE94A7-6D9C-A367-8A5E958D9DA61E5C,TAIPEI AUTHENTIC CHINESE CUISINE,121 E CHATHAM ST ,CARY,NC,27511,35.78769406,-78.78052303,19193885885
2119111.59126057,752377.724767208,1446764,12F1FA01-1465-87E8-1C2216229E77FD7E,WAFFLE HOUSE #725,2624 WESTINGHOUSE BLVD ,RALEIGH,NC,27604-2471,35.81659394,-78.59823562,19198335954
2098409.8052364,741902.891386211,1446765,130627C8-98E5-6336-EEE66A3339962132,SHANGHAI EXPRESS,2502 HILLSBOROUGH ST ,RALEIGH,NC,27607,35.78802697,-78.66818044,19197549797
2135810.93089332,812249.905219465,1446766,13092C0D-1041-1333-F4A614B161E3451A,SUBWAY #3726,12233 CAPITAL BLVD ,WAKE FOREST,NC,27587-6200,35.98087356,-78.54097555,19195568622
2059445.42253539,666577.665068462,1446767,131239D2-5056-A20B-FA4BCE6F9D7A1C31,FAINTING GOAT BREWING COMPANY,330 S MAIN ST ,FUQUAY-VARINA,NC,27526,35.58136729,-78.80007214,19193467915
2064093.62780589,742063.622692049,1446768,13160,Pure Gold Club Drink Stand,301 N HARRISON AVE,CARY,NC,27513-4557,35.78872873,-78.78388657,111111111111111
2128653.17814848,767110.346220553,1446769,131DCD95-D982-714E-9BB092822FC23677,BODY OF CHRIST CHURCH DREAM CENTER,5616 FOX RD ,RALEIGH,NC,27616,35.85695738,-78.56583482,19188721931
2113924.12788223,764438.082536221,1446770,1321AB74-CDE1-10B5-32C2F55CED375B39,Falls Tap Room,5009 FALLS OF NEUSE RD ,RALEIGH,NC,27609,35.84978294,-78.61557526,111111111111111
2094502.97512357,767411.982100219,1446771,133A8A6C-1657-ECA0-18E0DBA732B14C1E,Hardee's #1206,5601 Creedmoor RD ,RALEIGH,NC,27612,35.8581419,-78.68107712,19197814332
2112483.20720765,714499.752294958,1446772,1342994F-F0D9-139D-9056963F20F4E175,Hardee's #1189,100 Vandora Springs RD ,GARNER,NC,27529,35.71260367,-78.62108066,19197727209
2130529.06416048,745809.533507302,1446773,12F1400E-9F85-E811-FE4BF2142DB73174,Kome Asian Cuisine,4551-130 New Bern AVE ,RALEIGH,NC,27610,35.79841645,-78.5598231,19192126666
2056551.92372923,740643.029732719,1446774,13447CB9-173A-16EC-D4AA19A5846F4252,BROOKLYN BOYS PIZZERIA,1260 NW Maynard RD ,CARY,NC,27513,35.7848684,-78.80932512,19193193232
2087281.22185056,755489.96558997,1446775,132C81F7-5056-A20B-FA4B44D5AD91B3E0,JERSEY MIKE'S #349,3201-139 EDWARDS MILL RD ,RALEIGH,NC,27612,35.82545067,-78.70556784,19842025627
2070323.66685498,735783.104413211,1446776,132F3B95-CD64-E049-186B124737A6CB4B,Pei Wei Asian Diner #0116,1107 -101 Walnut ST,CARY,NC,27511,35.77143524,-78.76293052,19193370050
2105745.02711448,759822.068474293,1446777,1344DC55-CF8A-11E1-BBB3CD48D7E7DB5B,Mura At North Hills,4121 Main At North Hills ST ,RALEIGH,NC,27609,35.83718561,-78.64323049,19197817887
2037868.15991573,725644.393063381,1446778,13455ACE-5056-A20B-FA4810913766BCE8,"NOODLES &amp; COMPANY #866",1055 BEAVER CREEK COMMONS DR ,APEX,NC,27502,35.74374477,-78.87238568,19193629153
2047774.1387914,687853.361362129,1446779,1351D77D-1355-BFB3-400E6556F53D09DB,CHINA UNO,308  VILLAGE WALK  DR ,HOLLY SPRINGS,NC,27540,35.63987917,-78.83920922,19195579888
2137932.59692556,800652.072444052,1446780,1355603A-14FD-8BF8-913CA2C79A0B279A,Arby's,2104 S Main ST ,WAKE FOREST,NC,27587,35.94898611,-78.5339887,19195566724
2151842.56812131,744948.213707626,1446781,13588,LAS FINCAS,903 N SMITHFIELD RD ,KNIGHTDALE,NC,27545,35.79576936,-78.48796476,111111111111111
2094535.90222307,781756.205708295,1446782,13541,Oliver Twist Tapas Lounge,8111-137 Creedmoor RD ,RALEIGH,NC,27613,35.89754797,-78.68081035,111111111111111
2044749.95980039,695048.184570879,1446783,13634463-5056-A20B-FA3153397BCF0080,"CHILI'S GRILL &amp; BAR #1566",111 GRAND HILL PL ,HOLLY SPRINGS,NC,27540,35.65965931,-78.84935077,19195577841
2130300.3457859,797621.138545305,1446784,1376F467-5F3B-FDED-BEF8FD05579810FD,HAYASHI JAPANESE RESTAURANT,13200 NEW FALLS OF NUESE RD ,RALEIGH,NC,27614,35.9407555,-78.55981965,19195540508
2059356.94075698,757095.189085543,1446785,137E370F-5056-A20B-FAF49E65ECC1A07B,METLIFE 1 JUICE BAR,101 METLIFE WAY ,CARY,NC,27513,35.83005175,-78.79975563,19199075617
2066106.7655119,669905.863464549,1446786,138D98F4-1030-845B-81E4CC0174BD70E7,GOLDEN CHINA,1324 N MAIN ST ,FUQUAY VARINA,NC,27526-2617,35.59047244,-78.77764359,19195529397
2098273.02073306,699679.751095131,1446787,1396FDA8-1749-1448-B4D48A3C3364F60B,TAVERN ON THE GREEN,565 COMPETITION RD ,RALEIGH,NC,27603,35.67202739,-78.66911618,19198966330
2082253.38348106,741063.094181299,1446788,13B29D63-E9F4-14C3-64C4A456644C7EFB,Hardee's #1207,5639 Hillsborough ST ,RALEIGH,NC,27606,35.785856,-78.72266449,19198590607
2101647.17605823,784201.731985211,1446789,13BD246E-B337-12BD-FF1C160B344A80C4,New Eastern Buffet,9650 Strickland RD ,RALEIGH,NC,27615,35.90420107,-78.65677159,19198486670
2088058.29181872,766805.66310288,1446790,13A8F38F-C980-7D9D-2AB9F1C03FD64D9C,CAJUN CRAB HOUSE,6204-120 GLENWOOD  AVE ,RALEIGH,NC,27612,35.85653115,-78.70283224,19197817599
2045726.39715198,752727.976363301,1446791,13D531F0-B946-12D6-78C3EC64AFE17A6D,Inchin's Bamboo Garden,3532 Davis DR,MORRISVILLE,NC,27560,35.81812076,-78.84576194,19194576705
2047256.74087606,766179.092833713,1446792,13D53D00-12EA-1078-510F1377D1C7CE08,HYATT HOUSE FOODSERVICE,10962 CHAPEL HILL RD ,MORRISVILLE,NC,27560,35.85506763,-78.84052711,19193885355
2052045.41436957,692931.24785988,1446793,13DE1BDC-66EE-19C3-A0AC911834FBE245,CHINA BEST,632  HOLLY SPRINGS RD ,HOLLY SPRINGS,NC,27540,35.65381034,-78.82480349,19195770888
2064135.80751157,742506.596215546,1446794,13E63639-13DF-13EB-F1A0679523BCA5CF,Bosphorus Restaurant,329 N Harrison AVE ,CARY,NC,27513,35.78994545,-78.78374109,19194601300
2066898.84004323,671107.283961967,1446795,1401C278-9748-837E-882812F97DF7DD56,GOLDEN CORRAL # 2501,1420 E BROAD ST ,FUQUAY VARINA,NC,27526,35.59376837,-78.77497022,19195527604
2055980.14239249,747813.822805792,1446796,140C04E7-5056-A20B-FAACA5F5F308ED26,FOOD LION #1514 DELI,9567 CHAPEL HILL RD ,MORRISVILLE,NC,27560,35.8045716,-78.81120699,19194621542
2053220.24764982,766961.221846879,1446797,14290AB6-9B18-110B-1386154418D6B9B6,DELHI DARBAR INDIAN CUISINE,962 AIRPORT  BLVD ,MORRISVILLE,NC,27560,35.85718833,-78.82039789,19194603339
2118015.35231131,763886.272616208,1446798,142A516C-FB9F-8C80-B1E41398540DF636,Seoul Garden Restaurant,4701-131 Atlantic Ave,RALEIGH,NC,27604,35.8482227,-78.60177748,19198509984
2091720.48167281,752742.964522302,1446799,144BBB6A-1098-124F-E31114C42F37FFB8,Chef Mario,"2610 Wycliff RD, SUITE 23",RALEIGH,NC,27607,35.81786688,-78.69062153,19197814141
2104852.66767873,775988.247756049,1446800,142BDAD2-5056-A20B-FA13F925919C6685,HERO'S PUB,7440-8 SIX FORKS RD ,RALEIGH,NC,27615,35.88160626,-78.64604669,19197065750
2105763.82957031,721127.683920965,1446801,145,HOPE CAFE,201 TRYON RD ,RALEIGH,NC,27603,35.73088117,-78.64363571,111111111111111
2111792.70530781,781029.759326547,1446802,1443BAB5-5056-A20B-FA5BB7DBD520C4BA,FRESH LEVANT BISTRO,8450-106 HONEYCUTT RD ,RALEIGH,NC,27615,35.89538596,-78.62255458,19842003999
2116735.52219382,764765.585818216,1446803,145C7578-103F-1307-94689E421D1F11D1,1705 Prime Catering and Events,1705 E Millbrook RD ,RALEIGH,NC,27609,35.85065239,-78.60608423,19198502340
2116975.75530915,738580.912137792,1446804,145D0C97-5056-A20B-FAA5557BEDD1E7F5,HIBACHI ASIAN DINER,2004 NEW BERN AVE ,RALEIGH,NC,27610,35.778714,-78.60562461,19195941772
2069921.65781648,742532.303185135,1446805,145D4445-6B40-1313-274E60C50A004F99,Taqueria Rancho Grande,1401 SE Maynard RD ,CARY,NC,27511,35.78997989,-78.7642317,19194694245
2064172.81924856,747445.121771544,1446806,145F3FA2-C44C-B2CF-88D1A09CF0449CDD,KFC/Taco Bell #J120104,1011 N Harrison AVE,CARY,NC,27513,35.80351274,-78.78357999,19194676318
2112354.84361923,739088.455414042,1446807,14652A77-DED0-1FB3-A4C658ABB16C477E,KFC #J120100,1221 New Bern AVE,RALEIGH,NC,27610,35.7801578,-78.621197,19198287460
2048121.83593065,713895.547138542,1446808,14699CE7-16EA-107F-5785A741541502FF,WAFFLE HOUSE #1302,1417 E WILLIAMS ST ,APEX,NC,27539-7700,35.71142555,-78.83789587,19193639137
2045499.00653064,753816.65791297,1446809,146ADAE0-AAC4-D8A1-E80B7560649D44ED,TRA'LI,3107 GRACE PARK  DR ,MORRISVILLE,NC,27560,35.82111262,-78.84652326,19196519083
2058398.23073214,674980.258827552,1446810,14762D8A-5056-A20B-FAC4F220A8E856C0,HARDEE'S #1655,1560 N BROAD ST ,FUQUAY-VARINA,NC,27526,35.60445873,-78.80353813,19195529772
2119024.60488598,726574.793105468,1446811,597EC433-5056-A20F-9E687AB721B77C3D,Oak City Fish and Chips,"2822 New Birch Dr, Ste 102",RALEIGH,NC,27610,35.74570711,-78.59888069,19842004554
2204565.15755782,780047.943704888,1446812,0C41A1B2-5056-A20F-9EBB24178B08DAA3,Zebulon Country Club,2424 Pearces RD ,ZEBULON,NC,27597,35.89131767,-78.30935806,19192698311
2140098.83340673,802259.07776022,1446813,36438DBC-B339-92E3-2F5ABA5931586B38,First Watch Daytime Cafe #580,2808-105 Rogers RD ,WAKE FOREST,NC,27587,35.95337257,-78.52664419,19195695763
2135090.59473556,806939.904356554,1446814,D95A1BD9-5056-A20F-9E3537748B90696E,Firehouse Subs #1517,11704 Retail DR ,WAKE FOREST,NC,27587,35.96629568,-78.5434927,19195561010
2048209.72125356,688195.363302797,1446815,C155A714-EB50-845E-A330C8704310E525,Tropical Smoothie Cafe,409 Village Walk DR ,HOLLY SPRINGS,NC,27540,35.64081684,-78.83774133,19195867130
2051403.73717523,764659.166411638,1446816,BFB86FED-5056-A20B-FA09804E823B019E,GODAVARI TRULY SOUTH INDIAN,100-108 JERUSALEM DR ,MORRISVILLE,NC,27560,35.85087294,-78.82654162,19192346950
2042054.72011214,759094.585021138,1446817,A6262398-5056-A20B-FA0147698C0065F1,TWO GUYS GRILLE,4149 Davis DR ,MORRISVILLE,NC,27560,35.8356265,-78.85811603,19194629336
2080762.86251198,784658.246492133,1446818,9EC4C9D0-AE3B-CB27-94F9CEC42B09A147,Publix 1551 Deli,9640 Leesville RD ,Raleigh,NC,27613,35.90563318,-78.72728627,19198483480
2045726.39715198,752727.976363301,1446819,35E40826-C3B4-F542-20B205C92E611D91,BUNS BARN,3524 DAVIS DR ,MORRISVILLE,NC,27560,35.81812076,-78.84576194,
2070754.46225323,726380.088770464,1446820,42088ABF-FC8E-65E2-7D955D7C892346D2,KEBAB SKEWER,6446 TRYON RD ,CARY,NC,27511,35.74559939,-78.7615544,19193221535
2060407.02691139,712348.743801713,1446821,816A0E76-5056-A20F-9ED1102146AE3B43,FRIDA'S PATIO MEXICAN CUISINE,3470 KILDAIRE FARM RD ,CARY,NC,27518,35.70711378,-78.79652253,19192679477
2110518.30398522,751030.544718802,1446822,D9FD89D5-5056-A20F-9E072A9DAE127B53,Venture Pizza,2320-114 Bale ST ,RALEIGH,NC,27608,35.812985,-78.62723763,19192149871
2134171.63561548,718420.166042045,1446823,53B9B1FB-BF65-A222-DD838B156704194C,Hibachi 88,6213 Rock Quarry RD ,Raleigh,NC,27610,35.72312495,-78.54796019,19196628899
2111141.17806756,749056.082460374,1446824,AF381045-EE73-B4C1-B6DC845E99BBF284,JERRY'S GRILL,813 E Whitaker Mill RD ,RALEIGH,NC,27608,35.8075542,-78.62516193,19198327561
2056551.92372923,740643.029732719,1446825,85706AC6-5056-A20B-FA6E0CCCB34E4976,PIZZERIA VERITAS,1260 NW Maynard RD ,CARY,NC,27513,35.7848684,-78.80932512,19193193232
2090901.35174939,740810.09829621,1446826,D7DBC06C-5056-A20F-9EB579168821D7E0,Habibi Grill,1007 Method RD ,RALEIGH,NC,27606,35.78509108,-78.69350876,19199861928
2098261.07292232,741873.689016804,1446827,36F7249E-AB32-8AEC-11CA6BC80C0A6A06,Guasaca,2512-110 Hillsborough ST ,RALEIGH,NC,27607,35.78794811,-78.66868226,19192106838
2142463.61739106,805489.460407048,1446828,1864404E-5056-A20B-FA6B1C3FE6683192,Amalia's Authentic Italian Restaurant,1248 S Main ST ,WAKE FOREST,NC,27587,35.9622155,-78.51860143,19842370002
2066186.15741348,724553.309287548,1446829,41F0CBC0-5056-A20F-9ED0B1B122E5596E,CHICK-FIL-A #1218,411 COLONADES WAY ,CARY,NC,27518,35.7406098,-78.77696357,19198168222
2119881.69044214,767284.832748219,1446830,7E40D0A6-99DD-A306-4104782D41162A16,Treeo Senior Living Foodservice,2722 Spring Forest RD ,RALEIGH,NC,27616,35.85753852,-78.59543318,19198637770
2067558.15860648,756335.77885896,1446831,432EC939-5056-A20F-9E694119A03C2E13,"J &amp; S NEW YORK",2025 RENNAISANCE PARK PL ,CARY,NC,27513,35.82791688,-78.77209428,
2085290.94302273,768305.349079877,1446832,CBF4E144-5056-A20B-FA3FADC1AB5B38CD,Kim's Restaurant,6014 DURALEIGH RD ,RALEIGH,NC,27612,35.86067351,-78.7121564,19195105999
2033856.23093173,762956.860104963,1446833,879D18EE-0725-933A-FA95E9DA7F048821,Courtyard by Marriott Parkside Town Commons Food Service,1008 Parkside Main ST ,CARY,NC,27519,35.84626616,-78.88576102,19196591250
2125593.5363019,705983.063291624,1446834,E4A60ACC-5056-A20F-9E6D9F13186DB1B5,Chhote's,1155  Timber  DR E ,GARNER,NC,27529,35.68905989,-78.57703897,19194826535
2095863.47896422,749854.981453136,1446835,7E25E332-CC86-5F07-37B03622A2E88BC4,Uninhibited Tapas Bar,3048 Medlin DR ,RALEIGH,NC,27607,35.80989658,-78.67667879,19198905203
2107631.07157072,737766.273675218,1446836,DA713012-5056-A20F-9E3BA7D6F73667FB,Budacai,120 E Martin ST ,RALEIGH,NC,27601,35.77657388,-78.63713929,19198034005
2066186.15741348,724553.309287548,1446837,92A5D80C-5056-A20F-9EBB99B39286316C,CHICK-FIL-A #1218,411 COLONADES WAY ,CARY,NC,27518,35.7406098,-78.77696357,19198168222
2116960.87968273,704472.434095055,1446838,87B9E230-FE4B-33AB-11D272745EB27544,Big Ed's Garner,231 Timber DR ,GARNER,NC,27529,35.68500723,-78.60613102,19199007764
2064159.68476039,785060.521934301,1446839,AF11FF14-5056-A20B-FAAC843AFDD72C4A,Umami,8411 Brier Creek  PKY ,RALEIGH,NC,27617,35.90685073,-78.78334742,19198062888
2058703.33051565,783796.901758134,1446840,7C99FFA8-DB96-37CD-7FFA7911EE7920BF,Mellow Mushroom,9600 Brier Creek PKY ,RALEIGH,NC,27617,35.90341066,-78.80178075,
2100366.84233281,742631.602527216,1446841,7C3B3036-C1CF-CCA3-6183569F7A1AF409,Cava #84,403 Daniels ST ,RALEIGH,NC,27601,35.79001079,-78.66157335,19192787597
2123642.93784089,709225.965926543,1446842,1E12323A-5056-A20F-9E6DAD3362208C6E,Jersey Mike's Sub #3189,166 Cabela DR ,GARNER,NC,27529,35.69799194,-78.58356211,
2124826.8823234,705403.765237629,1446843,DA48ED4A-5056-A20F-9EF54915E2942D17,Starbucks Target 1824,1040 Timber DR E ,GARNER,NC,27529,35.6874773,-78.57962906,19196612017
2060739.03215289,711540.594827458,1446844,37FF305C-032E-F92F-4156020A7A5B5B53,Starbucks #49535,3460 Kildaire Farm RD ,CARY,NC,27518,35.70489163,-78.7954098,
2152123.79459298,744876.016017377,1446845,ECA477D7-FAB4-142C-F84DD60233776554,BOXCAR COFFEE AND SCOOPS,903 N SMITHFIELD DR ,KNIGHTDALE,NC,27545,35.79556703,-78.4870177,19102954741
2026995.83651607,757303.423577219,1446846,A5F65AEF-B929-4CBE-9F13-95A3662159F2,"Sweetwaters Coffee &amp; Tea",726 SLASH PINE DR,CARY,NC,27519,35.83075427,-78.90892711,19196945111
2117400.86928831,752906.288670719,1446847,D9C62E13-5056-A20F-9E0526B370642EA5,Joe Van Gogh,3109-115 Poplarwood CT ,RALEIGH,NC,27604,35.81806491,-78.60399872,19199008528
2051474.72489415,758119.680474877,1446848,8F0CCA7E-BCA9-70EC-19A237D8E5ED435E,Thai 54,10290 Chapel Hill RD ,MORRISVILLE,NC,27560,35.83290707,-78.82634068,19194438038
2107420.22356723,738268.049574554,1446849,420AC9D5-5056-A20F-9EDC8223EA44DD65,London Bridge Pub,110 E Hargett ST ,RALEIGH,NC,27601,35.77795451,-78.63784395,19198386633
2059877.62672348,724081.272830054,1446850,1DE4AF53-5056-A20F-9EEE3DA27BC7FCCF,Asali Desserts and Cafe,107 S Edinburgh DR ,CARY,NC,27511,35.73935005,-78.79822545,19193627882
2103955.92537773,722891.568188459,1446851,E48DE70D-5056-A20B-FA4E31C6C23D9BCC,Dunkin Donuts #306810,3209  S Wilmington ST ,RALEIGH,NC,27603,35.73574481,-78.6497063,19196617377
2080336.95850815,772993.564769045,1446852,3A49C85A-5056-A20B-FA4F02E45F908B33,SHEETZ #634,8101 GLENWOOD AVE ,RALEIGH,NC,27612,35.87359133,-78.72883202,19198905331
2105745.02711448,759822.068474293,1446853,3A94355E-605D-4486-B281-594DDCD0F39A,Mason's Famous Lobster Rolls,4121 MAIN AT NORTH HILLS ST,RALEIGH,NC,27609-5756,35.83718561,-78.64323049,19842001845
2140215.28888248,801406.359649375,1446854,505CC48C-2DCA-4FB0-9A9E-88E613EB5593,Wake Forest Hideout,1839 S MAIN ST,WAKE FOREST,NC,27587,35.95102854,-78.52626448,19196495180
2049793.31159031,726985.907112628,1446855,AEBF3945-C6DB-4A16-9568-080118D7876C,Zaxby's #69201,1171 PINE PLAZA DR ,APEX,NC,27523-6408,35.7473816,-78.83219078,
2104175.50728765,738858.72687088,1446856,F1EC22ED-A95F-D0AB-B2EA80D19D7C44C4,Calavera Taqueria Restaurant,615 W Morgan ST ,RALEIGH,NC,27603,35.7796093,-78.64877604,19196171661
2104103.88341515,738377.719958887,1446857,F55E86FD-F64D-749D-FE8BB41FDB3F55C6,"WYE HILL KITCHEN &amp; BREWING",201 S BOYLAN AVE ,RALEIGH,NC,27603,35.77828853,-78.64902324,19842001189
2105463.37905572,743170.74843055,1446858,57B3DE88-F4CC-4510-B55A-C703D42A7D68,Layered Croissanterie,911 N WEST ST,RALEIGH,NC,27603-2576,35.79144303,-78.64438198,19842001200
2125615.51690099,770388.27306363,1446859,0D66ADAA-1379-4857-BF9D-2878547172FF,Oriental Pho,5959 TRIANGLE TOWN BLVD,RALEIGH,NC,27616,35.86599856,-78.57603863,19194490807
2098670.21908565,741842.275037631,1446860,5BEC1301-19E1-4E26-8D9C-0B6C3162209C,Kabab and Curry,2412 HILLSBOROUGH ST,RALEIGH,NC,27607,35.78785805,-78.66730306,19199776974
2081306.10092682,781429.63123022,1446861,87D97E35-5056-A20F-9E1BBA2CE06DFE2A,SHISH KABOB,9101 LEESVILLE  RD ,RALEIGH,NC,27613,35.8967595,-78.72548207,19198481211
2028596.3385644,755164.583694801,1446862,598C0412-1F38-4602-90F8-10E2BDB56747,MOD Pizza #576,336 SEMBLER LN,CARY,NC,27519-2609,35.82487418,-78.90353469,19842087015
2110227.75797839,780344.844685882,1446863,FB90AFE9-BFB5-4AB1-AAD1-87A5B2F63CE8,The Lost Cajun Restaurant - Bent Tree Plaza,7901 FALLS OF NEUSE RD,RALEIGH,NC,27615,35.89352061,-78.62784692,19192673126
2184549.42987281,743811.381991804,1446864,2980E797-5056-A20F-9E1A0669A0F0709A,Boulevard Pizza,2925 Wendell BLVD ,WENDELL,NC,27591,35.79213283,-78.37769913,19193650040
2106974.00529957,736976.218824878,1446865,35ADF6A5-5056-A20B-FA6B04ED849E053D,Crema at City Plaza,421 Fayettville ST ,RALEIGH,NC,27601,35.77440995,-78.63936414,19198347279
2106489.65193756,760113.771959126,1446866,4DB25BA4-3918-4131-B416-38E95B9B1B89,Stir,4242 SIX FORKS RD,RALEIGH,NC,27609,35.83797961,-78.64071469,19842008614
2137013.30873789,774191.568934709,1446867,1586BE40-4028-48FD-91B6-39DE011A8797,Marco's Pizza #8486,7500 RAMBLE WAY,RALEIGH,NC,27616,35.87630713,-78.537511,19198251812
2122955.31749699,759089.71659255,1446868,0BFEE35A-5056-A20B-FA77017C77835B2C,Pho Oxtail,3901 Captial  BLVD ,RALEIGH,NC,27604,35.83498992,-78.58517624,19193074008
2076713.89488815,731203.181814551,1446869,84187D4A-1B3C-47D6-BA1A-EE6E81A3ADC4,Cava Grill #087,2001 WALNUT ST,CARY,NC,27518,35.75880896,-78.74142861,
2122560.31533423,742169.029305384,1446870,F8DF2C68-5056-A20B-FA8739E86F8D150D,Sinbad Pizza,3110  New Bern AVE ,RALEIGH,NC,27610,35.78850913,-78.58674652,19192316456
2088014.85621007,784653.110347554,1446871,3AA64ACF-5056-A20F-9EE16D7CD7F254F1,NoRa Cafe,12333 STRICKLAND RD ,RALEIGH,NC,27613,35.90556189,-78.7027985,19192328321
2103514.22514565,780923.457701877,1446872,65519C3D-5056-A20F-9EDD312806AFAAE9,Take 5 Cafe Raleigh,8529 Six Forks RD ,RALEIGH,NC,27615,35.8951772,-78.65050621,19193490055
2124773.78564481,762160.59627755,1446873,ED584C5B-3F4B-4D58-8F6B-A524DC9B4F0E,"Seagate Seafood &amp; Sushi",4420 CAPITAL BLVD,RALEIGH,NC,27604,35.84340528,-78.57899727,19842004766
2065976.71918406,670257.781723961,1446874,C7B3BFAF-CAD0-47A5-B196-21FCBAA84F7F,Panera Bread #6073,1330 N MAIN ST,FUQUAY VARINA,NC,27526-2617,35.59144011,-78.77807837,
2048047.60117097,739511.181274638,1446875,CD6E01FB-9B3C-AEFB-A3A3AF61E5A66845,CHAR-GRILL CARY,3635 SW CARY PKY ,CARY,NC,27513,35.78180038,-78.83800513,19194617112
2065063.01628706,747880.329234466,1446876,87D05790-0471-4BAB-B85A-24CA343F30C5,NYC Bagels,263 GRANDE HEIGHTS DR,CARY,NC,27513,35.804703,-78.7805746,19196510060
2094294.50769272,761476.680978715,1446877,41ECD187-43FC-415F-A7A3-5F970C3B447F,Uncle Julio's #48,4325 GLENWOOD AVE,RALEIGH,NC,27612-4539,35.84183815,-78.68184484,19842211333
2111313.47267048,743556.502908379,1446878,F794BC50-6895-4C51-9487-D8A3047AE8FC,Falafel Co,1000 BROOKSIDE DR,RALEIGH,NC,27604,35.79244363,-78.62465098,19199779004
2107195.63116865,739689.560182959,1446879,3BE7A7B9-E1D8-9ED0-3E7EB9D4887A01E5,Sweet Tea and Cornbread Cafe,5 E Edenton ST ,RALEIGH,NC,27601,35.78186205,-78.63858369,19198146980
2064615.2173139,732992.847854629,1446880,8CFBC21F-2E1E-4E45-9A0F-F05B40E80BDC,Himalayan Grill and Bar,1207 KILDAIRE FARM RD,CARY,NC,27511-7704,35.76380548,-78.78219496,19193770117
2108527.26367597,742228.297231466,1446881,6A7811A4-C87A-424B-86BB-AE38C001360D,JOLIE,620 N PERSON ST,RALEIGH,NC,27604,35.78882326,-78.6340625,19198037221
2130658.43266815,745934.289163291,1446882,41994F3B-349F-4789-9296-2495EF0CB26D,Secrets Cajun Kitchen,4511 NEW BERN AVE,RALEIGH,NC,27610,35.79875761,-78.55938498,19193224048
2094110.8138344,783030.534196377,1446883,71A797F2-5056-A20F-9E9148814E65B744,Harris Teeter #495 Starbucks,8345 Creedmoor RD ,RALEIGH,NC,27613,35.90105252,-78.68223183,
2081009.84495765,785384.825747624,1446884,7D0B2189-D9C9-1FA1-E3BF8A24D3C0476F,DUNKIN' #347603,13240 STRICKLAND RD ,RALEIGH,NC,27613,35.90762735,-78.72644553,19198900089
2079475.24205573,679081.678446218,1446885,A760DA1E-0801-BA05-62AE3D1A9692A49C,Oaklyn Springs Brewery,2912 N Main ST ,Fuquay-Varina,NC,27526,35.61559182,-78.7325945,19197620049
2069340.83515923,743311.422689885,1446886,ABD62A8D-5056-A20F-9EEB06AD48E12CB4,SUBWAY #17385,611 E CHATHAM ST ,CARY,NC,27511,35.79212412,-78.76618398,19193800202
2114503.78157856,748288.733273298,1446887,98A6AF68-3C63-4860-A9C9-575FC6E4F354,Union Special,2409 CRABTREE BLVD,RALEIGH,NC,27604,35.80541069,-78.61383129,19842003094
2048580.15588015,766920.224225461,1446888,ACD9D0DE-FB0E-3B73-67FD4F4C88B34A5D,UNC HEALTHCARE MOTOWN CAFE,1025 Think  PL ,MORRISVILLE,NC,27560,35.85709776,-78.83605698,19849747894
2122389.16475789,791656.241026297,1446889,940E716D-F1D3-4346-97FE-C7AAE324FABA,THE ASPENS AT BEDFORD FALLS KITCHEN,1580 DUNN RD,RALEIGH,NC,27614-9308,35.92446259,-78.58662877,19198467216
2141969.10427248,820927.456433877,1446890,E49722C1-049E-40EB-9D4E-0E811C2101DF,Char-Grill Wake Forest,13600 CAPITAL BLVD,WAKE FOREST,NC,27587,36.0046313,-78.52002018,19195542000
2049331.00050706,691250.13147147,1446891,EDA24955-6CF6-495F-8110-25FF32B6AAA3,Osha Thai Kitchen and Sushi,242 S MAIN ST,HOLLY SPRINGS,NC,27540-9094,35.64920445,-78.83395027,19196019188
2076713.89488815,731203.181814551,1446892,1D9AB77A-C960-4205-A521-A64987EABF11,Burger Fi,2001 WALNUT ST,CARY,NC,27518-9205,35.75880896,-78.74142861,19199008959
2112256.60070547,713363.59446229,1446893,2FB338B9-B475-421B-98BE-7272EAF8AAD1,"Summertime Tea &amp; Smoothie",1350 FIFTH AVE ,GARNER,NC,27529,35.70948463,-78.6218586,19193222127
2118373.69378623,759528.5729983,1446894,EB8A0169-8448-42F5-BB98-A0042214DDB7,L.A. Horchateria Coffee Shop,2261 NEW HOPE CHURCH RD,RALEIGH,NC,27604,35.83624718,-78.60062749,19198098201
2096307.08634473,742476.306906044,1446895,EF2474DF-DD86-BADA-6E53174F6B04171E,Hangover Grill,2908 HILLSBOROUGH ST ,RALEIGH,NC,27607,35.78962141,-78.67526404,19842222040
2102281.57669231,718516.512634128,1446896,CAA14233-35FF-4962-9FC6-9932C05F3890,"3 Olives Pizza &amp; Deli",1493 GARNER STATION BLVD,RALEIGH,NC,27603,35.7237412,-78.65539938,19197773530
2110445.70012781,751008.837085053,1446897,1380A1FA-98AE-4A4F-A51D-AC240B9FF8FE,Chido Taco,2330 BALE ST,RALEIGH,NC,27608,35.81292611,-78.62748278,19195941930
2052045.41436957,692931.24785988,1446898,4D18E0F3-D2C6-E7B3-D46D654E75E97503,Ashley's Harvest Moon Bakery - Cafe,128 Bass Lake RD ,Holly Springs,NC,27540,35.65381034,-78.82480349,19195867005
2107488.62664564,737258.583417624,1446899,2061D52C-5056-A20F-9EF7F174A4ECECE6,Reuben's NY Deli,170  E Davie ST ,RALEIGH,NC,27601,35.77518054,-78.63762576,19193897678
2064608.48438773,671062.546846718,1446900,5CF53246-7672-4CC5-A658-9B936DB6917A,Jersey Boy Subs #001,943 E BROAD ST ,FUQUAY VARINA,NC,27526,35.59365948,-78.78267467,19195528255
2059968.68395606,723139.401354209,1446901,77E4500D-BE19-4B26-8B09-F3D2CEB1915E,"Gamers Geekery &amp; Tavern",107 EDINBURGH SOUTH DR,CARY,NC,27511,35.7367619,-78.79792507,
2064338.55316906,747490.422862053,1446902,56C0404D-D8DE-E499-ACB839BA08770AA3,ZAXBY'S,1021 N HARRISON  AVE ,RALEIGH,NC,27513,35.8036362,-78.78302072,19194812070
2062391.71848007,771526.089029461,1446903,90AEB2E8-F3FA-48F5-89A5-E9116F95802F,Burger Fi RDU,2400 JOHN BRANTLEY BLVD,MORRISVILLE,NC,27560,35.8696795,-78.78941437,
2105745.34010598,765691.002602547,1446904,230F11E8-5056-A20B-FAAA80C4A13C92D2,Dunkin Donuts/Baskin Robbins 334786,5265 SIX FORKS RD ,RALEIGH,NC,27609-4431,35.85330887,-78.64315826,19195711303
2043429.13435806,727294.016404554,1446905,5C330D80-EA1B-4CA6-8BCC-25F494A1659D,Mustang Charlie's,1501 N SALEM ST ,APEX,NC,27502-2933,35.74825575,-78.85363723,17044258003
2048751.71032706,693635.907867879,1446906,629DF882-25AD-40D3-9725-F75A4D5B55DA,Sweetberry Bowls Holly Springs,150 W HOLLY SPRINGS RD ,HOLLY SPRINGS,NC,27540,35.65576179,-78.8358869,
2130977.8306514,798500.807061553,1446907,48F7A602-5056-A20B-FADCF6383053327A,Dunkin Donuts #348408,13600  New Falls of Neuse RD ,RALEIGH,NC,27614,35.94316378,-78.55751775,19195560335
2055776.51156615,740815.689164296,1446908,8186162E-D5C0-4664-877D-F4F92914A5B4,Harris Teeter #494 Deli,1273 NW MAYNARD RD,CARY,NC,27513,35.78534681,-78.81193845,
2134171.63561548,718420.166042045,1446909,350E6F22-546A-43C8-8601-1155FFFAE508,Alpha Dawgs,6209 ROCK QUARRY RD,RALEIGH,NC,27610,35.72312495,-78.54796019,19842005637
2136582.03860307,801386.524387211,1446910,C5D1A00C-BE8E-46AB-83CF-2D9327E45695,Rookie's Sports Bar,11200 CAPITAL BLVD,WAKE FOREST,NC,27587,35.95102106,-78.53854002,19193902503
2112407.20178223,754071.373610884,1446911,416A120B-2A9D-4177-8833-271D14407A81,Wegmans #108 - Main Kitchen,1200 WAKE TOWNE DR,RALEIGH,NC,27609,35.82131925,-78.62082753,19849605600
2125593.5363019,705983.063291624,1446912,8C60A4BB-5056-A20B-FA3395370AA75290,Indian Pizza and Kebab,1155 Timber DR E ,GARNER,NC,27529,35.68905989,-78.57703897,19842004746
2100517.8207054,743172.741208717,1446913,FDF3BBFD-C0F9-4012-896B-F9C2863D9486,Harris Teeter #21 Starbucks,500 OBERLIN RD ,RALEIGH,NC,27605,35.79149603,-78.66105804,19198289216
2061669.68908423,757420.316716135,1446914,CB515365-A81B-4AD6-9103-00E8F2267950,Verizon Cary Marketplace,7000 WESTON PKWY,CARY,NC,27513,35.83093189,-78.79195115,19193775214
2118055.19212665,752466.506085709,1446915,1A337FD7-F52C-0170-55811068DF31A31D,Dunkin Donuts/Baskin Robbins #339085,2727 Capital BLVD ,RALEIGH,NC,27604,35.81684953,-78.60179762,19198759092
2094854.93340914,725887.362721801,1446916,527A3DB6-CFFC-428F-9A34-064A3E943FD5,Subway #1570,2720 LAKE WHEELER RD,RALEIGH,NC,27603,35.74405959,-78.68034061,19193073004
2134879.00591989,810695.916529551,1446917,351A00E9-BB52-41B7-92B8-2E5263437C1F,"Fairfield Inn &amp; Suites by Marriott Foodservice",12051 RETAIL DR,WAKE FOREST,NC,27587,35.97661643,-78.54414942,19194357056
2061067.4153544,696788.418951303,1446918,2E049131-2B03-4DA3-8248-1C15ED7896E7,Town Hall Burger and Beer of Holly Springs,301 MATTHEWS DR,HOLLY SPRINGS,NC,27540,35.66435998,-78.79440661,
2074971.00139232,651392.581921637,1446919,CA8BF0D5-E17C-4409-8A8E-892941FEE85B,Tacos Don Marcos,9629 BITTER MELON DR ,ANGIER,NC,27501,35.53954963,-78.74798609,19192727062
2067398.45157681,756586.629407138,1446920,6B910AD8-43EE-4BB4-81DF-7AD2AA33ECE3,Ko-An,2800 RENAISSANCE PARK PL,CARY,NC,27513,35.82860703,-78.77263111,19196779229
2157827.56074448,790631.326737553,1446921,CF39CF6B-2966-4273-8D72-F40030C0608F,"Black &amp; White Coffee Roasters",6320 ROGERS RD,ROLESVILLE,NC,27571,35.92118294,-78.46695569,
2089804.07540065,751538.406563967,1446922,1E8D065C-51CA-42AA-B4AC-4B9A510CA8FD,Just Salad,4025 LAKE BOONE TRL,RALEIGH,NC,27607,35.81457389,-78.69709804,19199253400
2062796.75704007,789447.197872221,1446923,BD76BBE4-6B62-4679-A792-4A5ED9BD6E03,Showmars,4203 CORNERS PKWY,RALEIGH,NC,27617,35.91890974,-78.78791806,19848880161
2100757.17915057,742617.103868544,1446924,303327CA-5056-A20B-FA75CC220DCC79FE,Which Wich #280,413 WOODBURN RD ,RALEIGH,NC,27605,35.7899673,-78.66025735,19198339424
2118858.94019106,726723.841691881,1446925,5E63175D-9018-426B-8BE5-F8BB37706F27,Hibachi Flavor,2822-100 New Birch  DR ,RALEIGH,NC,27610,35.74611843,-78.59943696,19199165162
2109994.55995397,740366.763881043,1446926,B857FD4F-BB00-BAAC-FE200E11F32E3BE2,SmokeStacks Cafe,701 E LANE ST ,RALEIGH,NC,27601,35.78369416,-78.62913849,19197366408
2203643.68105431,754589.729201466,1446927,84CDCA0D-9B57-4EA6-97B0-19000A1E436B,Pizza Amore,103 N ARENDELL AVE,ZEBULON,NC,27597-2601,35.82139737,-78.31306375,19196460042
2033414.41849515,769035.272488803,1446928,29871CBB-8355-41A2-B7AD-F1376ED79969,The Exchange Cafe,6933 LOUIS STEPHENS DR,MORRISVILLE,NC,27560,35.86296634,-78.8872285,19196236072
2130443.00757407,798627.953788877,1446929,3B08422D-FEFE-4C40-BEBB-C3B89FE805A2,Sheetz,13401 FALLS OF NEUSE RD,RALEIGH,NC,27614,35.9435196,-78.55932262,19195548858
2109139.57413115,737153.308037624,1446930,97D12335-04A4-953F-6A31C315CA0F29B3,Transfer Company Bar,500 E Davie ST ,RALEIGH,NC,27601,35.77487463,-78.63206132,
2094407.30274273,782152.189824462,1446931,4DE3835B-5056-A20B-FA2F7A0D3E243E50,DUNKIN' #348561,8201 CREEDMOOR RD ,RALEIGH,NC,27613,35.89863695,-78.68124026,19198470245
2117450.05882248,704263.201901957,1446932,FBA4A383-A00E-4946-A1FA-2827078F7EDC,Carolina Fish Fry,1566 BENSON RD,GARNER,NC,27529,35.68442705,-78.60448652,19193222223
2042054.72011214,759094.585021138,1446933,462F99F7-5056-A20B-FAB37F3EE5EFB83D,FLAVORS KITCHEN,4051 Davis DR ,MORRISVILLE,NC,27560,35.8356265,-78.85811603,19193889432
2090284.97010815,734128.077539548,1446934,72FE9362-5056-A20B-FA817093852788D4,PEARL 88,3215 AVENT FERRY RD ,RALEIGH,NC,27606-2720,35.76673883,-78.69565606,19192338776
2085340.32678223,767594.440068632,1446935,7D7A9C1A-5056-A20F-9ECE9AA9E30262FA,PEDALER WINE AND BEER,5910 DURALEIGH RD ,RALEIGH,NC,27612,35.8587201,-78.7119967,19842223218
2104655.15790315,740570.215573877,1446936,B6B87AA9-48FF-4FA8-BF02-BBE697C9891D,Tin Roof,300 GLENWOOD AVE,RALEIGH,NC,27603,35.78430657,-78.64713841,19193222333
2076512.31294224,729225.295678467,1446937,83900FAA-AE25-4F55-AE31-B5AF9650692B,Seol Grille,2310 WALNUT ST,CARY,NC,27518,35.75337653,-78.74212537,19842419112
2044884.90933365,742205.516765207,1446938,5118030F-EBF8-4B84-A799-DEA3A55BBCD4,H Mart Thai Koon Nine,1961 HIGH HOUSE RD,CARY,NC,27519,35.78921622,-78.84865444,
2145420.65576832,811070.393798962,1446939,8A5D5878-FF76-4A2A-B6EC-84448B5DC148,Norse Brewing Company,203 BROOKS ST,WAKE FOREST,NC,27587,35.97750697,-78.5085161,19195544555
2103286.62094206,717911.48366046,1446940,D3C11A4F-7D67-464C-8C62-0DE0CDB27356,Starbucks #57972,4203 FAYETTEVILLE RD,RALEIGH,NC,27603,35.72206935,-78.65202042,19197571181
2191405.62186906,754634.791119218,1446941,7851CE76-5056-A20F-9E6F22BCB51F5649,Memo's Pizza,1877 E Gannon AVE ,ZEBULON,NC,27597,35.82174682,-78.35434331,19196460064
2138197.0603074,800302.03738296,1446942,D61937D7-5056-A20F-9E4D6BC7DCCC3E40,Korean Kitchen,2101 S Main ST ,WAKE FOREST,NC,27587,35.94802112,-78.53310077,19192638181
2145355.01351115,809862.124890044,1446943,F8F5110A-5056-A20F-9E262BE0AEC5E143,"Strike &amp; Barrel",413 Brooks ST ,WAKE FOREST,NC,27587,35.97418866,-78.50875816,19194884651
2117616.92659898,783255.180072546,1446944,0183ADA1-5056-A20F-9E0DB35C45A17532,Chronic Taco Raleigh,9424 FALLS OF NEUSE RD ,RALEIGH,NC,27615,35.90143714,-78.60286042,19199776284
2100529.22160123,782719.482325047,1446945,3E0349F0-B790-859D-B3247A9CF9C7E5EB,The Cypress of Raleigh Club Main Kitchen,8801 Cypress Lakes DR ,RALEIGH,NC,27615,35.90013964,-78.66056363,19195188923
2113192.20119648,703180.261154458,1446946,9A254436-0EAB-F8DB-C8C98CF137CFAACC,Cadence Assisted Living of Garner Foodservice,200  Minglewood DR ,GARNER,NC,27529,35.68149758,-78.61883873,19197731550
2143049.85407948,801390.547673136,1446947,A18DB730-5056-A20F-9E07C388C979D0E4,Cadence at Wake Forest Dining,3218  Heritage Trade DR ,WAKE FOREST,NC,27587,35.95094757,-78.51668794,19195692101
2106644.91573465,760183.80134663,1446948,752E4B3E-5056-A20F-9E9931DA2662C42B,AC Hotel Raleigh North Hills Level 7,101 PARK AT NORTH HILLS ST ,RALEIGH,NC,27609,35.83817045,-78.64018999,19195712500
2124584.0757224,759284.490481213,1446949,A7958157-536C-44C4-AF3C-15CDA5BBDEA3,Stars and Strikes,4020 CAPITAL BLVD,RALEIGH,NC,27604,35.83550619,-78.57967846,16789655707
2107898.52871297,737511.493672967,1446950,AAD57BB9-D41A-ABCC-8532A319BD54218F,High Horse,208 Wolfe ST ,RALEIGH,NC,27601,35.77587123,-78.63624076,19196242168
2051332.84952173,741925.139373213,1446951,41D1D577-730E-456B-8388-1C02D14247C6,The Parkway Tavern,982 HIGH HOUSE RD,CARY,NC,27513,35.788417,-78.82691458,19192340018
2156818.15626723,788915.346901804,1446952,1606466A-5056-A20B-FADFFCB57C0E741D,SIP Noshery,400 Southtown CIR ,ROLESVILLE,NC,27571,35.91648377,-78.47039569,19192638126
2075001.29627924,732724.912366882,1446953,257F1D1F-232D-4C6E-B7D6-E4963109A078,Noodle Boulevard,1718 WALNUT ST,CARY,NC,27511,35.76300175,-78.747188,19196781199
2202823.27259015,758979.03210263,1446954,6E6C0D84-5056-A20B-FAC16C6C04D38376,Pizza Hut #036606,151 Wakelon St,ZEBULON,NC,27597,35.83347119,-78.31572903,19192696455
2118413.62119982,784638.641216382,1446955,8B1BC2DB-6A5C-41DB-BC35-79E1CE5F1FDE,Harris Teeter #136 Starbucks,9600 FALLS OF NEUSE RD,RALEIGH,NC,27615,35.90522894,-78.60015155,19196766614
2031060.60561748,723232.582926378,1446956,4EE59782-F060-4433-9640-4BE263883C7A,Culver's of Apex #730,1401 KELLY RD,APEX,NC,27502,35.73714061,-78.89533544,19193725610
2053988.09191464,717327.378529459,1446957,93787B6B-5056-A20F-9EBA193E2BEEA868,BIG SERGIO'S PIZZA OF APEX,2127 TEN TEN RD ,APEX,NC,27539,35.72082607,-78.81811355,19193031770
2064227.8361989,746414.442730546,1446958,AE7725DF-5056-A20B-FA23457BFC2B8EE6,SUBWAY #2046,921 N HARRISON AVE ,CARY,NC,27513-3904,35.80068085,-78.78340203,19194672424
2130367.18128215,780540.752758637,1446959,4872CDAA-5056-A20B-FA342B55F11C8407,Dunkin Donuts #349131,8401 Capital  BLVD ,RALEIGH,NC,27616,35.89383244,-78.5598497,19195214960
2061067.4153544,696788.418951303,1446960,5C8E3A0D-4F6A-4ABD-8EA2-34B9F48614F9,Smoothie King #1662,4212 LASSITER RD,HOLLY SPRINGS,NC,27540-4301,35.66435998,-78.79440661,
2095285.61496247,740602.543265134,1446961,7A4F325C-E76C-4039-B4DA-FF4EEDE3470D,Starbucks NCSU,2610 CATES AVE,RALEIGH,NC,27607,35.78448278,-78.67872874,19195132013
2133958.73052947,810404.451233208,1446962,4C292B24-5056-A20B-FA13F4C877EAA531,Dunkin' #351119,999 DURHAM  RD ,WAKE FOREST,NC,27587,35.97582732,-78.54726412,19195569007
2111809.09044565,770433.248039305,1446963,A35FBCC6-C741-48D2-B564-47E0A4056E2D,Cape Fear Seafood Co,832 SPRING FOREST RD,RALEIGH,NC,27609,35.8662752,-78.62263526,19842424600
2047108.27463757,714152.897673711,1446964,AD9FF235-2892-4583-9B83-803B25B386C0,Quality Inn and Suites (breakfast area),1400 E WILLIAMS ST,APEX,NC,27539,35.71213708,-78.84130878,19193628621
2105118.60841981,738209.466358379,1446965,36901105-AF94-276A-AF3A0988F739F994,Oak Steakhouse,417 W Hargett ST ,RALEIGH,NC,27603,35.77781639,-78.64560424,19842551818
2061184.37017298,671005.699847549,1446966,B2C06166-CAE8-452D-8153-F9EBD17B61BB,Juicehaus,509 E BROAD ST,FUQUAY VARINA,NC,27526,35.59352334,-78.79419282,19192852130
2124550.19914973,706722.354463965,1446967,028FFDF5-5611-4B00-B5B9-2F539639779E,Teriyaki Madness,160 SHENSTONE BLVD,GARNER,NC,27529,35.69110315,-78.58054205,
2135800.9154934,798083.198316708,1446968,3F550247-5056-A20B-FA1260E5BE3E235D,Bruegger's Bagels #4127,10750 Wakefield Commons DR ,RALEIGH,NC,27614,35.94195641,-78.54123068,19199861591
2078210.18454649,726574.52178055,1446969,5D5915B4-D81B-4053-90A7-5016CD19FBD0,Sheetz #675,101 KUMAR CT,RALEIGH,NC,27606,35.74608176,-78.73642667,19198798486
2029326.19209157,753610.806618631,1446970,7F55B253-9CE9-C304-9689564FDE474B8E,DUNKIN' DONUTS #350706,10030 GREEN LEVEL CHURCH  RD ,CARY,NC,27519,35.82060358,-78.90107787,19194814477
2061067.4153544,696788.418951303,1446971,9C001706-26FE-4C02-B8AD-9843334E78C3,Manhattan Pizza,305 MATTHEWS DR,HOLLY SPRINGS,NC,27540-4300,35.66435998,-78.79440661,19193676667
2096548.44052081,742468.188155875,1446972,CCE54A71-5F7F-48B7-9F7E-76DC674A9BAB,"Nature's Juice Bar &amp; Cafe",2808 HILLSBOROUGH ST,RALEIGH,NC,27607,35.78959693,-78.67445032,19842000768
2110894.1916849,753711.662716135,1446973,CA67264F-5056-A20F-9E441A2959C1E239,Jumbo China,404-183 E SIX FORKS RD ,RALEIGH,NC,27609,35.82034681,-78.62593575,19195468858
2145075.82673356,811078.169373959,1446974,7D21D1F8-5056-A20F-9E49073F806C5D22,Sugar Magnolia Cafe,219 S WHITE ST ,WAKE FOREST,NC,27587,35.97753302,-78.50968138,19194354436
2091192.80654706,741055.00495863,1446975,97555947-7E90-4F27-963A-9B19CB18F03A,Biscuitville #194,3928 WESTERN BLVD,RALEIGH,NC,27606,35.78576143,-78.69252351,
2136268.9657384,811979.388372049,1446976,7239545C-5056-A20F-9E7B3F91DF4F326A,Pizza Hut of Wake Forest,12239 Capital ,WAKE FOREST,NC,27587-6200,35.9801246,-78.53943171,19195569190
2045334.19846131,754561.365741134,1446977,03702DBE-5056-A20B-FA32EB7DE50BB566,PIZZA HUT #2020,11010 LAKE GROVE  BLVD ,MORRISVILLE,NC,27650,35.82315923,-78.84707532,19192340652
2045426.23108564,770098.209011212,1446978,853A736B-5056-A20F-9EC5B967D4C38C25,DHARANI SOUTH INDIAN CUISINE,1000-106 LOWER SHILOH WAY ,MORRISVILLE,NC,27560,35.86584223,-78.84668392,19199919918
2048979.87949015,693659.967202961,1446979,0D62549C-5056-A20F-9E0B69625F1A45C7,PIZZA HUT #9210,321  N MAIN ST ,HOLLY SPRINGS,NC,27540,35.65582685,-78.83511867,19193469020
2094110.8138344,783030.534196377,1446980,BDCA9826-5056-A20F-9E024BE35BC861A8,BREW TO BREW,8369 CREEDMOOR RD ,RALEIGH,NC,27613,35.90105252,-78.68223183,19198585007
2150264.56865264,745741.984429792,1446981,C779CF79-5056-A20B-FAE759C59FAAC700,China House,7063 Knightdale Blvd,KNIGHTDALE,NC,27545,35.79797229,-78.49327225,19192174484
2043610.79836482,720141.771194637,1446982,FA5330F7-5056-A20B-FAD1CCB74278A085,PIZZA HUT #9215,301-105 N SALEM ST ,APEX,NC,27502,35.7286054,-78.85306067,19192674517
2128706.41196589,793737.591522381,1446983,C74CD5C2-ED67-44EE-17194B7956C6F143,Beans & Bubbles,3607-125 FALLS RIVER AVE ,RALEIGH,NC,27614,35.93010621,-78.56526166,19193224012
2044308.14211448,721181.275349215,1446984,DAC68C40-F3B2-4955-9837-3FB552FB055F,Mission Market Cafe,124 N SALEM ST,APEX,NC,27502,35.73145842,-78.85070582,19196294064
2038507.43193115,740569.153568134,1446985,28D518D7-0EB6-49D7-A12F-965DEDDD4A2B,Cici's Pizza,2700 NC 55 HWY,CARY,NC,27519,35.78474547,-78.87016558,19192496448
2045490.6098939,743772.659956381,1446986,C3F38939-9F0D-E789-5C64EC981523FF7E,TROPICAL SMOOTHIE CAFE NC23,1385 BRADFORD VIEW PL ,CARY,NC,27519,35.79351906,-78.84660394,19193789859
2082894.09184532,740435.158757374,1446987,7804E59D-5056-A20B-FA852FA72D98BEBA,"TEDDY'S PIZZA &amp; PASTA",5563 WESTERN BLVD ,RALEIGH,NC,27606-1595,35.78412594,-78.72051017,19192339144
2200713.7029904,754157.905261964,1446988,E3F44035-5056-A20F-9EB0F19CD65D0F09,Zebulon Family Restaurant,409 W Gannon AVE ,ZEBULON,NC,27597,35.82026636,-78.32295686,19194048661
2169447.23763631,736108.646741137,1446989,14DCD0E7-A27D-6A2D-5AFBF11D16C6D309,Farm House Cafe,320 Vintage Point LN ,WENDELL,NC,27591,35.77122092,-78.42877202,19193747227
2075522.4632159,777994.358245134,1446990,7F2087D6-5056-A20F-9E6C25BCEBF7B593,DUNKIN' #347369,8710-100 GLENWOOD AVE ,RALEIGH,NC,27617,35.88736454,-78.74503936,19197840050
2114809.76948364,761521.928919718,1446991,241E8100-5056-A20B-FA8B426D985FA012,Dunkin Donuts #337301,4415 FALLS OF NEUSE RD ,RALEIGH,NC,27609,35.84176217,-78.61262519,19198769901
2026995.83651607,757303.423577219,1446992,270662F6-3A24-451B-A68D-D73BC0B7D700,Amberly Local,718 SLASH PINE DR,CARY,NC,27519,35.83075427,-78.90892711,19196502546
2045499.00653064,753816.65791297,1446993,111DA0D3-D143-177A-B3288EF4FC1B7C91,THAI'S NOODLE,2101 GRACE PARK DR ,MORRISVILLE,NC,27560,35.82111262,-78.84652326,19194813036
2118466.6588234,768989.976319551,1446994,93D67BBD-77D8-4405-B3E9-1EB8350E67F3,Marco's Pizza 8533,5621 ATLANTIC AVE,RALEIGH,NC,27615,35.86223865,-78.60018528,19199161500
2151220.08478624,746422.104132548,1446995,455E8504-5056-A20B-FA38ADAFD4BA4C93,"Scoozi Pizza &amp; Grill",7039 Knightdale BLVD ,KNIGHTDALE,NC,27545,35.7998273,-78.4900383,19192171110
2124771.4611744,745943.518147469,1446996,0D584E34-BD67-D195-38AF3432FE140772,Pizza Hut #036586,3691 New Bern AVE ,RALEIGH,NC,27610,35.79885313,-78.57923704,19199008096
2060648.52380373,697153.160347804,1446997,9E1CBB58-D541-4870-8F3F-3DD25F95455D,Dunkin' #358815,208 MATTHEWS DR ,HOLLY SPRINGS,NC,27540,35.66536445,-78.79581434,
2094429.58845931,781879.634267211,1446998,4F4CB415-5056-A20F-9E68034E6EBEA210,POKANO POKE ISLAND GRILL,8107 Creedmoor RD ,RALEIGH,NC,27613,35.89788799,-78.68116797,19842002990
2128706.41196589,793737.591522381,1446999,CFD01827-F594-CB60-2AE4CA18408C56E0,The Pho Place,3607-117 FALLS RIVER  AVE ,RALEIGH,NC,27614,35.93010621,-78.56526166,19199007518
2064694.16269407,731522.890164629,1447000,019F78FB-B609-4A78-949C-97E7BB11064F,Szechuan Mansion Restaurant,1353 KILDAIRE FARM RD,CARY,NC,27511,35.75976658,-78.78193974,19198001802
2106100.53230898,737054.685203388,1447001,36598553-3EC2-4384-909E-9DF2A7DBC26B,Poole'side Pies,428 S MCDOWELL ST,RALEIGH,NC,27601,35.7746342,-78.64230785,
2146044.85694773,799588.287498131,1447002,51C07002-BCA6-4321-BA78-A99794A21109,Chick-Fil-A #4239,1010 FORESTVILLE RD,WAKE FOREST,NC,27587,35.94595609,-78.50659937,19195546995
2124586.51010072,745194.029817045,1447003,8AF5654D-58AE-42DE-8BAA-B1A8C9B99B74,Touchdown Sports Bar,3601 NEW BERN AVE,RALEIGH,NC,27610,35.79679625,-78.57987143,
2051332.84952173,741925.139373213,1447004,320C337D-0384-410B-A42B-BEA9E76F4D3E,Miso Ramen,970 HIGH HOUSE RD,CARY,NC,27513,35.788417,-78.82691458,19843330110
2112407.20178223,754071.373610884,1447005,2FF99456-F7E5-459C-8C3E-8C972F35F98B,Starbuck's,2901 SHERMAN OAK PL ,RALEIGH,NC,27609-6884,35.82131925,-78.62082753,
2052954.78197339,767380.777438208,1447006,21587DD7-5056-A20F-9EBB1FCAC9A2D70C,VICINO'S PIZZA,962A Airport BLVD ,MORRISVILLE,NC,27560,35.85834226,-78.8212912,
2103286.62094206,717911.48366046,1447007,CB343355-84F9-4CB6-92CE-9078D923E2CC,Marco's Pizza,4203 FAYETTEVILLE RD,RALEIGH,NC,27603,35.72206935,-78.65202042,19197624444
2142537.9748539,731449.150482714,1447008,C7199EEB-5056-A20B-FA51B94BEF424153,The Addison of Knightdale Dining,2408 Hodge  RD ,KNIGHTDALE,NC,27545,35.75881159,-78.519561,19192666676
2068681.07499582,746333.8041123,1447009,D8F7DFA4-D370-B3AB-1471451E5B02C779,PIZZA HUT #036626,920 NE Maynard RD ,CARY,NC,27513,35.80043169,-78.76838489,19194699991
2069179.80136056,737714.263280541,1447010,4D050F4B-5056-A20F-9EB6CC6D317444C1,YOUR PIE CARY,685 CARY TOWNE BLVD ,CARY,NC,27511,35.77674815,-78.76677132,19193789578
2062391.71848007,771526.089029461,1447011,3A8A1B3E-5056-A20B-FA6C8EAAB02F00C9,"BAGELS &amp; BAO",2400 JOHN BRANTLEY BLVD ,MORRISVILLE,NC,27560,35.8696795,-78.78941437,19198404475
2069124.92318948,742821.160218969,1447012,7FA73066-316B-4DDB-A531-28D1329990F6,Taqueria y Restaurante El Primo,744 E CHATHAM ST,CARY,NC,27511,35.79077863,-78.76691591,19193470086
2044559.80827782,755826.355337128,1447013,E4037A2D-92D2-4E07-B547-8184CBB856CF,Bul Box,1125 HATCHES POND LN,CARY,NC,27519,35.82663773,-78.84968108,19196502549
2114078.07540898,704482.727709636,1447014,C7B48555-9807-4E1C-A4BC-1AD83F5FEF26,Plant Slant Juice,1851 AVERSBORO RD ,GARNER,NC,27529,35.68506655,-78.61583871,19193224082
2037800.79489298,726530.639322385,1447015,3819CBEB-81C0-4FAA-A006-49875E966901,"Bonafide Bakeshop &amp; Cafe",1232 W WILLIAMS ST,APEX,NC,27502,35.74617982,-78.87260887,19193725000
2075560.98085539,726668.670542374,1447016,70F67029-3BAE-4E8E-9E53-373BAC0AAB95,Mookies NY Deli,1010 TRYON VILLAGE DR,CARY,NC,27518-7193,35.74635942,-78.7453538,19199007770
2073204.69094856,673909.963067874,1447017,D3ECAEFC-AC15-4A93-89DA-78A0CCF3959C,Culver's of Fuquay Varina,1860 CINEMA DR ,FUQUAY VARINA,NC,27526,35.60142745,-78.75373572,
2066009.94549556,723798.13953805,1447018,9B7872E9-FD69-498C-9FE7-3DBA43FD5A73,Shake Shack #1294,310 COLONADES WAY,CARY,NC,27518,35.73853619,-78.77756307,19192309390
2184741.23165457,744362.204380959,1447019,872462D9-5056-A20F-9E02B54CEBD7BD1E,Hunter's Country Kitchen,84 Hanor LN ,WENDELL,NC,27591,35.79364277,-78.37704073,19198186881
2105132.08805165,738538.769833624,1447020,74FA32C1-FE34-401C-A943-B24EEA333E54,Weaver Street Market,404 W HARGETT ST,RALEIGH,NC,27603-1806,35.77872095,-78.64555484,19194297800
2048326.93263331,767792.100434467,1447021,6B50150F-5056-A20B-FAEF38424D3B0CD0,POWER UP CAFE,5221 Paramount Parkway,MORRISVILLE,NC,27560,35.85949415,-78.8369067,19195853013
2113710.85337439,704768.837701708,1447022,152B4262-5056-A20F-9E560F92343A87B2,Pizza Hut #036631,1805 Aversboro RD ,GARNER,NC,27529,35.6858565,-78.61707161,19197799200
2031076.70663515,722831.714633629,1447023,CB353BDC-9370-4526-B9BE-41B83D19649B,Marco's Pizza #8403,1487 KELLY RD,APEX,NC,27502-9572,35.73603924,-78.89528261,19194465555
2104433.36635198,718339.364366382,1447024,7E2E1830-35AC-48AD-A2E6-82A3D87CE95E,Tropical Smoothie Cafe NC074,1553 US 70 HWY W,GARNER,NC,27529,35.72323377,-78.64815188,19198033040
2156109.59042715,745500.322839633,1447025,026789C1-2E3A-4346-B370-63A37240018B,Prime Barbeque,403 KNIGHTDALE STATION RUN,KNIGHTDALE,NC,27545,35.79722482,-78.47356613,19193738076
2077517.36244132,731872.810068458,1447026,F678B0F1-5056-A20F-9EE65B15ADFDADFA,Tropical Smoothie Cafe NC24,228 Crossroads BLVD ,CARY,NC,27518,35.76064286,-78.73871452,19196518379
2051020.19791606,757106.483026221,1447027,CFD6C2CE-5056-A20B-FA2CB21D3FB9DB58,PARADISE INDIA CUISINE,10255 CHAPEL HILL RD ,MORRISVILLE,NC,27560,35.83012574,-78.82788003,19194816881
2044322.43211214,721207.174903721,1447028,8DDB4145-9D7D-1EEF-E5AACBF5E48D6B55,PEAK ON SALEM,126 N Salem ST ,APEX,NC,27502,35.73152951,-78.85065754,19194466060
2055980.14239249,747813.822805792,1447029,116F3AEE-5718-4C40-BCF7-B12037CF1F69,Meeples Brew,9545 CHAPEL HILL RD,MORRISVILLE,NC,27560,35.8045716,-78.81120699,19193781847
2124687.57223456,763955.866637126,1447030,FA774E96-6591-4A1F-BE34-08DDF6C8DACA,Little Caesars #2002-12,4610 CAPITAL BLVD,RALEIGH,NC,27604,35.84833828,-78.57926249,19198778600
2096253.89091307,742028.028931215,1447031,B2497819-E907-98E9-7995AF10FC94EA4D,Cloud 9 Dining,111 FRIENDLY DR ,RALEIGH,NC,27607-5463,35.78839034,-78.67544835,19193273800
2062046.03577247,782949.922152877,1447032,28F6CDB6-EF0C-0219-D7C4B14BE6A40E0F,CHICK-FIL-A #01573,8901 Brier Creek PKY ,RALEIGH,NC,27617,35.901065,-78.79049975,19192930100
2124887.8034614,772109.760762379,1447033,517F1DDC-26C9-4BD6-8EA6-A055D77A193B,Your Pie,6320 CAPITAL BLVD,RALEIGH,NC,27616,35.87073633,-78.57847002,19842007304
2123057.21985222,709507.488001302,1447034,6A9776C6-5056-A20F-9E2B69C8FF32FBCA,Alpaca Peruvian Charcoal Chicken,57 Cabela DR ,GARNER,NC,27529,35.69877212,-78.58553086,19199177600
2105745.02711448,759822.068474293,1447035,DCB43969-5056-A20F-9E4AE39774E46CA0,Which Wich North Hills,4120 MAIN AT NORTH HILLS  ST ,RALEIGH,NC,27609,35.83718561,-78.64323049,19197869111
2065956.10275547,725824.866127625,1447036,82B24B07-A15C-42F1-8645-5B409F6AC82E,Templeton of Cary,215 BRIGHTMORE DR,CARY,NC,27518,35.7441046,-78.77772922,19842003688
2064262.7829794,733931.786921635,1447037,CC6C3CDC-74F8-4E59-9A72-7EAD8E0FE00C,Brecotea Baking Studio,1144 KILDAIRE FARM RD,CARY,NC,27511,35.76638716,-78.78337604,19192341555
2108288.76251256,739064.527640387,1447038,ACBEEB7A-C396-CDDB-3C11F6988677DBEE,Gringo A GoGo,100 NW PERSON  ST ,RALEIGH,NC,27601,35.78013392,-78.63490591,19199771438
2064743.51955073,741234.632552132,1447039,44DC988F-5056-A20F-9E9A546E0909E606,Academy Street Bistro,200 S Academy ST ,CARY,NC,27511,35.78644735,-78.78170139,19193770509
2122955.31749699,759089.71659255,1447040,6B25F91F-5056-A20B-FA11DCFD00186DB5,Pho Oxtail,3901 Captial  BLVD ,RALEIGH,NC,27604,35.83498992,-78.58517624,19193074008
2122206.4899264,740495.02313897,1447041,98302A3D-F17E-4E9C-B008-F31135FC964C,Panera Bread #9206 at Wake Med,3000 NEW BERN AVE,RALEIGH,NC,27610,35.78391423,-78.58796297,19842478902
2093901.30867597,761810.620271459,1447042,5C9072A8-DA40-4B02-8CE4-3CB45BBA14A1,Perry's Steakhouse,4509 CREEDMOOR RD,RALEIGH,NC,27612,35.84275901,-78.68316791,19198274158
2117105.79113831,765526.172879711,1447043,68AE5550-BD74-19C3-8A1EC491BCB610D7,Cadence Living North Raleigh Dining,5219 OLD WAKE FOREST RD ,RALEIGH,NC,27609,35.85273784,-78.60482458,19198766316
2032808.23105922,763718.701757133,1447044,9975B38E-0EAA-C2C3-01B44A4718538E1E,WOK ON FIRE,1216 PARKSIDE MAIN ST ,CARY,NC,27519,35.84836238,-78.88929435,19194660888
2043429.13435806,727294.016404554,1447045,8C2704C8-703B-459C-BA9A-3A495249A6D0,Mustang Charlie's,1501 N SALEM ST,APEX,NC,27502,35.74825575,-78.85363723,19196552101
2146110.57138322,745888.241355136,1447046,A7B0FA53-34CB-49E8-8825-15B8667CAD11,Vida Dulce Ice Cream Shop,1018 SHOPPES AT MIDWAY DR,KNIGHTDALE,NC,27545,35.79843154,-78.50727783,19192954190
2065091.99490364,741689.199556381,1447047,6BC6D16F-4F19-4546-A104-D67A7A951392,Hank's Downtown Dive,111 E CHATHAM ST,CARY,NC,27511,35.78769406,-78.78052303,
2045066.01395832,743330.76024963,1447048,A227E014-5007-4B97-B92D-0672551E8DE7,Los Tres Mexican Restaurant,1400 BOULDERSTONE WAY,CARY,NC,27519,35.79230683,-78.84803797,19193330069
2124619.92899714,705987.543925717,1447049,96F0F66F-5056-A20B-FAA1FD616664CD3D,Wendy's #9393,1020 Timber DR E ,GARNER,NC,27529,35.68908356,-78.58031768,19194579999
2102280.22302048,716758.462344468,1447050,BCD793BC-5056-A20B-FAA21C39C32DEBC7,Wendy's #10533,4510 Fayetteville RD ,RALEIGH,NC,27603,35.71891126,-78.6554245,19196610667
2091146.08452764,740291.849660799,1447051,CA020B46-38FE-49A1-8107-15A462C93840,Yemen Arab Restaurant,3933 WESTERN BLVD,RALEIGH,NC,27606,35.78366523,-78.69268901,19197030004
2044559.80827782,755826.355337128,1447052,55977318-03E7-4367-A26C-CF4AFD9B3376,Mezeh Grill #29  Twin Lakes,1125 HATCHES POND LN,CARY,NC,27519,35.82663773,-78.84968108,19193420517
2066647.72210714,670335.483012125,1447053,927F4111-5056-A20F-9E1AEA97BD8A2B79,Wendy's #1985,1374 N Main ST ,FUQUAY-VARINA,NC,27526,35.59164945,-78.77582077,19195570139
2136347.06171082,773545.288403139,1447054,F523F249-5056-A20F-9E55C80934CCFDA5,Wendy's,7460 Louisburg RD ,RALEIGH,NC,27616,35.87454018,-78.53977,19197130810
2032808.23105922,763718.701757133,1447055,035A1212-0772-DF3A-905849E37EBA0822,Five Guys #1710,1121 Parkside Main ST ,CARY,NC,27519,35.84836238,-78.88929435,19193800450
2038052.81702673,741054.635536805,1447056,0E8968FD-5056-A20F-9E81A3627C65CF8D,Burger King #11244,2791 NC 55 HWY ,CARY,NC,27511,35.78608086,-78.87169627,19193870071
2068112.02790557,756680.538668126,1447057,E3B36C1F-5056-A20F-9E756AA8B5C19750,Burger King #9362,1711 N Harrison AVE ,CARY,NC,27513-2406,35.82886051,-78.77022313,19196778895
2069000.89030106,785738.787638128,1447058,3CDEF66A-CDC6-1C4D-7F7DBD2723FD875B,Bullseye Grill,6501 Mount Herman RD ,RALEIGH,NC,27617,35.90868392,-78.76699446,19842005336
,,1447059,BFAF730C-5056-A20F-9E0179F2B468EFB6,Wendy's,7132 US Highway 64 E ,KNIGHTDALE,NC,27545,,,19192660917
2114680.48037215,760281.723394886,1447060,AEAB0DB1-5056-A20F-9EB3CC5D9E90DB65,Burger King #3768,4203 Wake Forest RD ,RALEIGH,NC,27609,35.83835644,-78.61307772,19198723795
2123662.42533474,768431.538131967,1447061,CCA91CFE-CB16-8FEE-B710908918F838CA,Five Guys #1784,5501 Capital BLVD ,RALEIGH,NC,27616,35.86064576,-78.58265814,19842320547
2059802.58159798,697809.448077217,1447062,C8B20293-5056-A20F-9EAF93F5F659BA7C,Subway #30443,9800 Holly Springs RD ,RALEIGH,NC,27540,35.66717227,-78.79865789,19193874818
2198747.22299948,754397.59802404,1447063,0F2B21BC-9FEF-0894-7C41240107D1ED14,Burger King #10775,636  W Gannon Ave,ZEBULON,NC,27595,35.82096151,-78.32958448,19194041091
2062046.03577247,782949.922152877,1447064,8DC64DE8-C887-4DA3-8E5C-FC3C5C30DA1A,Chick-Fil-A,8901 BRIER CREEK PKWY,RALEIGH,NC,27617,35.901065,-78.79049975,
2114839.97578806,729850.860700294,1447065,6C75D2AD-A707-CAA8-BC863C424A3EE16E,Burger King #8513,1828 ROCK QUARRY RD ,RALEIGH,NC,27610,35.75475311,-78.61293992,
2032808.23105922,763718.701757133,1447066,753B498F-81F0-4F9C-B6F6-FE6D1C84F92B,Potbelly Sandwich Shop,1108 PARKSIDE MAIN ST,CARY,NC,27519,35.84836238,-78.88929435,
2105590.98838057,738799.977972627,1447067,95054435-5056-A20B-FA1A3427935F2468,Libations 317,317 W MORGAN ST ,RALEIGH,NC,27601,35.77943405,-78.64400454,19197702669
2094677.67818622,759427.398331881,1447068,DD291EEF-5056-A20B-FA45C1DF8B44D94B,Homewood Suites by Hilton Raleigh/Crabtree Food Service,5400 Homewood Banks  DR ,RALEIGH,NC,27612,35.83620491,-78.68057425,19194488871
2091018.06313014,752341.510272712,1447069,CE693856-5056-A20F-9EBF5D15F05BAB5B,Chick-Fil-A #03376,3770 Lake Boone TRL ,RALEIGH,NC,27607,35.81676997,-78.692995,19197852799
2102944.22038014,782133.448720217,1447070,FAC68C94-0B59-42CE-99DE-34632001B34C,"Target Starbucks &amp; Snack Bar",8701 SIX FORKS RD ,RALEIGH,NC,27615,35.89850675,-78.65241639,
2086999.14400265,767844.070802972,1447071,7B00CFDE-5056-A20B-FAC1F3B1037A4F30,Burger King #2983,6500 Glenwood AVE ,RALEIGH,NC,27612,35.85939254,-78.70639613,19193222199
2140215.28888248,801406.359649375,1447072,068EFEF7-5056-A20B-FAB13A9BE3B3D15A,"Brookfields Indoor Golf &amp; Lounge",1839 S Main ST ,WAKE FOREST,NC,27587,35.95102854,-78.52626448,19842351722
2112604.8004684,770141.320145458,1447073,2EC19474-C753-49F0-9C7C-4A6F098A169A,Cava #128,6004 FALLS OF NEUSE RD ,RALEIGH,NC,27609-3526,35.86546488,-78.61995347,19192764591
2123932.52256356,707090.274659887,1447074,0965DA22-CA50-46A3-A467-FBEFACD56D54,Chick-fil-A #01488,220 SHENSTONE BLVD,GARNER,NC,27529,35.69212111,-78.58261702,
,,1447075,5C62BDB2-D92C-E897-873120AEC2A95830,WCC Cafe,111 Competition DR ,RALEIGH,NC,27560,,,19844654579
2110868.77933414,753591.899504215,1447076,D23DA998-D758-4FA3-8083-15750BEA2284,Midtown Pho,424 E SIX FORKS RD ,RALEIGH,NC,27609,35.82001805,-78.62602299,19197479899
2094110.8138344,783030.534196377,1447077,DD49B622-A7FE-3693-8A609ADE0A6E3CF7,Pure Vegan Cafe,8369 Creedmoor  RD ,RALEIGH,NC,27613,35.90105252,-78.68223183,19196333476
2128910.72947064,746794.598466292,1447078,73560436-D3FE-79D5-07662DF5295F46A2,Jersey Mike's #3130,4121 NEW BERN AVE ,RALEIGH,NC,27610-1379,35.80114227,-78.56526592,19192310070
2089475.95958707,696692.305298388,1447079,8DB22C43-9CDF-6821-6EBAD0252AF0813F,Wendy's #10585,8050  Ten-Ten Rd,RALEIGH,NC,27603,35.66389668,-78.69876609,19193298224
2016543.22454731,685433.173289135,1447080,B6B7603B-5056-A20B-FA6E948617CF0CB4,Shearon Harris Cafe,5413  Shearon Harris RD ,NEW HILL,NC,27562,35.63332345,-78.94432591,19842292037
2150730.94304799,745707.457924053,1447081,A87390F6-5056-A20F-9E7130447F5475D6,Burger King #7810,7102 Knightdale Blvd,KNIGHTDALE,NC,27545,35.79787089,-78.49170015,19192665966
2044538.62754589,753884.694194213,1447082,7F8076BB-5056-A20B-FAD594A2D16314A4,Rosati's Pizza Morrisville ,3605 Davis DR ,MORRISVILLE,NC,27560,35.82130357,-78.84976245,19193807000
2089040.53263639,752031.28779605,1447083,FE49D367-8BD2-4243-A061-0705433805E6,City Barbeque #10056,4122 LAKE BOONE TRL ,RALEIGH,NC,27607,35.81593433,-78.69966836,19197392506
2077517.36244132,731872.810068458,1447084,8FC1D633-5056-A20B-FA788F3F842778E6,Subway #3151,311 Crossroads BLVD ,CARY,NC,27518,35.76064286,-78.73871452,19198519594
2087492.87070549,768225.836771712,1447085,CE4378E9-BD4D-B10F-389952392A35CECC,New World Cafe,4112 PLEASANT VALLEY RD ,RALEIGH,NC,27612,35.86043731,-78.70472608,19197860091
2064406.35683922,731548.259864554,1447086,EB2C17E2-5056-A20F-9EEBF4A46569D7AF,Wendy's #6303,1343 Kildaire Farm RD ,CARY,NC,27511,35.75983801,-78.78290963,19194671407
2063027.9783624,716607.090928048,1447087,EC0A83DF-5056-A20F-9EF3F0A5BA7B97C9,Wendy's #6306,2964 Kildaire Farm RD ,CARY,NC,27511-9614,35.71879788,-78.78766335,19193635748
2046004.74928556,753011.317660138,1447088,8057CBFD-5056-A20B-FA33C189F61B45DE,McDonald's #32336,1001 MORRISVILLE CARPENTER RD ,MORRISVILLE,NC,27560,35.81889798,-78.84482154,19194607228
2045499.00653064,753816.65791297,1447089,AB0925D8-5056-A20F-9E9F31E0440B0BB7,"Woody's Sports Tavern &amp; GRill",3107 Grace Park DR ,MORRISVILLE,NC,27560,35.82111262,-78.84652326,13736503177
2145336.7645319,780524.079235554,1447090,BE365240-AF1E-4BA2-B34B-BAAD1C38F40E,Buried Hatchet,8440 LOUISBURG RD ,RALEIGH,NC,27616-5884,35.89359383,-78.50930992,19192954731
2095069.19479164,777769.336385459,1447091,7A5A355E-5056-A20B-FAC07EDB4BF4B9C9,Burger King #6010,7300 Creedmoor RD ,RALEIGH,NC,27613-1637,35.8865906,-78.67905329,19198469002
2138364.76568064,800459.703406215,1447092,C4D4DE67-A29E-DF73-F86045913CC0FE95,Wendy's #11590,2091 S Main ST ,WAKE FOREST,NC,27587,35.94845207,-78.53253168,19195692133
2135987.81669439,803598.603624463,1447093,CF3BF277-BBC5-47C7-90DC-2271581AC3FB,Pizza Hut #37653,11480 CAPITAL BLVD,WAKE FOREST,NC,27587-4554,35.95710544,-78.54051305,19195569190
2136162.73924482,812261.30873996,1447094,074AC329-5056-A20F-9E9823318057748A,Dairy Queen #11993,12271 Capital  BLVD ,WAKE FOREST ,NC,27587,35.98090041,-78.53978632,19195542564
2092642.37254557,740596.858893305,1447095,ECB6AFA5-5056-A20F-9EEDBBD96343D5D6,Wendy's #6325,3715 Western BLVD ,RALEIGH,NC,27606,35.78449034,-78.68764087,19198213099
2096087.1031889,738375.815435126,1447096,15D1F147-DB2F-17B1-4E6C19D46C0FEE65,Burger King #4521,2241 AVENT FERRY RD ,RALEIGH,NC,27606-2133,35.77835817,-78.67605091,19198291908
2123194.16774106,756111.357719883,1447097,1A4A6B85-5056-A20B-FA0C0A07CEA44D5E,Golden Corral - Capital Blvd #942,3424 CAPITAL BLVD ,RALEIGH,NC,27604,35.82680494,-78.58441249,19198720500
2068154.53930348,757518.2896173,1447098,5F6B4C5A-FEA5-3F14-7A18A88617C0409F,Tropical Smoothie Cafe,817 Bass Pro LN ,CARY,NC,27513,35.83116175,-78.77007317,19193789333
2074691.89466706,732771.762666881,1447099,E0A3EFCB-5056-A20B-FA459CC89E5784A9,FIRST WATCH DAYTIME CAFE,1104 LEDSOME LN ,CARY,NC,27511,35.76313262,-78.74823051,19193224344
2125593.5363019,705983.063291624,1447100,755018DA-AD5B-9774-1E8CE1FCCA552D96,Demario's,1155  Timber Dr E ,GARNER,NC,27529,35.68905989,-78.57703897,19196055591
2063297.92828181,741520.376075134,1447101,C146A720-C9CB-4433-BE2F-665480A7655F,Annelore's German Bakery,308 W Chatham ST ,Cary,NC,27511,35.787241,-78.78657347,19192676846
2086998.29885998,767572.494902551,1447102,FF6984DE-5056-A20F-9E515A5A73E6FACF,PIZZA HUT #2025,6429-C GLENWOOD AVE ,RALEIGH,NC,27612,35.85864647,-78.70640169,19197811133
2054328.71885806,746256.043769136,1447103,24739EC4-9E9D-D03D-ABDBA884F27C70AD,OKJA,1080 DARRINGTON DR ,CARY,NC,27513,35.80030045,-78.8167861,19196501565
2111649.87029165,773549.574811876,1447104,E74C485A-5056-A20F-9E695F84B8DD7355,Falls Village Wine and Beer,6675-131 Falls of Neuse RD ,RALEIGH,NC,27615,35.87483802,-78.6231327,19842005984
2102227.30580348,749488.353249386,1447105,A509FD0E-9D28-45D4-8381-1C1D3D458A5A,Idle Hour Coffee Shop,1818 OBERLIN RD,RALEIGH,NC,27608,35.80883052,-78.6552198,19842001605
2100757.17915057,742617.103868544,1447106,5F485201-D0C7-4790-91B0-B711C08C1AAC,"Noodles &amp; Company #871",2031 CAMERON ST,RALEIGH,NC,27605,35.7899673,-78.66025735,1919
2112433.30868539,770467.811618462,1447107,FB71D1B0-ECFA-94BC-EA41B52B64034FDF,"The Winchester Pub &amp; Bottle Shop",6146 Falls of Neuse RD ,RALEIGH,NC,27609,35.86636362,-78.62052805,19198966955
2062739.42054056,741445.857851461,1447108,73F2CD02-D1AB-A53A-96EAF8CF4FFC3CB8,El Amigo Mexican Restaurant,404 W Chatham ST ,CARY,NC,27511,35.78703957,-78.78845716,19193170016
2065357.59279765,741503.831160709,1447109,FD9C37A9-9BEA-4555-975E-6B4C17062B6B,Daybreak,154 E CHATHAM ST,CARY,NC,27511,35.78718319,-78.77962888,19194391181
2124362.63456424,766987.166676879,1447110,C9E19063-5056-A20F-9E97CD2E57A6AAC0,Outback Steakhouse #3459,5200 Capital BLVD ,RALEIGH,NC,27616,35.85666967,-78.58031568,19197900990
2064694.16269407,731522.890164629,1447111,29505631-2F71-4121-8F81-BB1F281C8B24,Cha House,1319 KILDAIRE FARM RD,CARY,NC,27511,35.75976658,-78.78193974,19844650498
2029385.50266849,755288.723538384,1447112,8590A8D1-9378-4FC1-8330-0A174D0ECE7C,Marco's Pizza #8407,325 CARPENTER HILL DR,CARY,NC,27519,35.82521309,-78.90087215,19192302222
2028596.3385644,755164.583694801,1447113,DD8B2323-B85E-0317-D5743B9690CF9D3B,MOD PIZZA - AMBERLY,336 SEMBLER LN ,CARY,NC,27519-2609,35.82487418,-78.90353469,19842087015
2117616.92659898,783255.180072546,1447114,CA52137D-5056-A20F-9E8028B30B765A63,Peno Mediterranean Grill,9424 Falls of Neuse RD ,RALEIGH,NC,27615,35.90143714,-78.60286042,19199774513
2077122.88750848,726719.466700628,1447115,2BECAC32-8751-4AFE-9137-CE88EA54FB59,Bojangles #52,5856 Tryon RD ,CARY,NC,27518,35.74648785,-78.74008963,19194247922
2125615.51690099,770388.27306363,1447116,912050BC-5056-A20B-FA65FE2F9E4D728A,Tyeway Cafe,5959 Triangle Town Blvd,RALEIGH,NC,27616,35.86599856,-78.57603863,19199129757
2151220.08478624,746422.104132548,1447117,24FB6AA2-5056-A20F-9E0E15B854694866,"St. George Pizza &amp; Subs",7039  Knightdale  Blvd,Knightdale,NC,27545,35.7998273,-78.4900383,19192954252
2107935.65790381,738483.076047376,1447118,DEC1D7D4-5056-A20F-9E97A21578F485B4,Bean Sprouts Cafe,201 E Hargett ST ,RALEIGH,NC,27601,35.77854007,-78.63610358,19198571108
2071840.20909747,675691.620265707,1447119,8B4EFBF0-5056-A20B-FA6F37005D87831B,The Addison of Fuquay-Varina Dining,6516 Johnson Pond Rd,FUQUAY VARINA,NC,27526,35.60633165,-78.7583113,19194392538
2056551.92372923,740643.029732719,1447120,892BC79A-5056-A20F-9ED7DB903A2A562F,Great Harvest Bread Co.,1240 NW MAYNARD RD ,CARY,NC,27513,35.7848684,-78.80932512,
2112256.60070547,713363.59446229,1447121,31BF3ACF-5056-A20F-9E2F1E647CCBBA2B,Moomoo Cha,1350 Fifth AVE ,GARNER,NC,27529,35.70948463,-78.6218586,19193222127
2113924.12788223,764438.082536221,1447122,F8E20F14-5056-A20B-FAA40E4AA6964166,Deja Brew,5001 FALLS OF NEUSE RD ,RALEIGH,NC,27609,35.84978294,-78.61557526,19192394612
2114080.64889465,759499.500877962,1447123,91EE212F-C1CF-F787-E68CF93DC19651E9,Subway 3152,4003 WAKE FOREST RD ,RALEIGH,NC,27609,35.8362139,-78.61511172,19198762266
2044395.9683824,756437.074260041,1447124,B9746B4F-D8B9-4B59-8638-240650C0AB1C,Wegmans #139 Coffee/Subs/Pizza/Salads,3710 DAVIS DR,CARY,NC,27519,35.82831621,-78.85023067,
2026995.83651607,757303.423577219,1447125,29ECF1B2-F1C1-72EC-5E1B9198F11B8DB3,PURE JUICERY,716 Slash Pine DR ,CARY,NC,27519,35.83075427,-78.90892711,19192341572
2098099.0558579,742020.003684804,1447126,EB390C65-AFDF-47B7-9FB2-C950FF52779E,Wing It On,2526 HILLSBOROUGH ST,RALEIGH,NC,27607-7266,35.78835156,-78.6692269,19198905845
2066009.94549556,723798.13953805,1447127,0FC9F1BC-5056-A20F-9EDB476FA78A7218,TASU #2,525 NEW WAVERLY  PL ,CARY,NC,27518,35.73853619,-78.77756307,19199774037
2069179.80136056,737714.263280541,1447128,9735E2FB-5056-A20B-FA3D071AD933DCB4,Jersey Mike's subs,701 Cary Towne Blvd,CARY,NC,27511,35.77674815,-78.76677132,19194618100
2055863.81355689,748482.525536627,1447129,CEA1F649-DD33-71D7-927E8705F0136A99,MI CANCUN 2,9605 CHAPEL HILL RD ,MORRISVILLE ,NC,27560,35.80640931,-78.81159503,19194819002
2094907.81880206,767133.212316543,1447130,EB0826F7-B4EC-54EF-74762AFD69772267,MOD Pizza - Millbrook Rd,2071  W Millbrook Rd,RALEIGH,NC,27612,35.85737248,-78.67971393,19199873668
2104705.44553223,740325.167179465,1447131,5869C4D7-2D82-48B4-A40A-70FC86802E66,BigFoot Taphouse,222 GLENWOOD AVE,RALEIGH,NC,27603,35.78363286,-78.6469718,19196151774
2104965.01391073,740498.805611715,1447132,6B83688C-2BE6-4FE3-BD75-E8F9BC7D86A6,Five Star Restaurant,301 N WEST ST,RALEIGH,NC,27603,35.78410736,-78.64609455,19198333311
2140740.47090298,801719.492553294,1447133,AEE5D4B2-A280-422E-AC0C-3EC85FA23F59,Dunkin #358977,2880 ROGERS RD,WAKE FOREST,NC,27587-3894,35.95188185,-78.52448504,
2151842.56812131,744948.213707626,1447134,71E38A86-20E5-46E3-A13E-34CAADB56CD1,Grand Street Pizza,901 N SMITHFIELD RD ,KNIGHTDALE,NC,27545,35.79576936,-78.48796476,19192173410
2062720.38514556,716348.91099821,1447135,63994A49-4B23-4236-B445-03DD302BC56D,Burrito Shak,2982 KILDAIRE FARM RD,CARY,NC,27518,35.71809037,-78.78870146,19192676772
2138197.0603074,800302.03738296,1447136,B52C6308-78CE-47F7-8C4F-05E94B6E85AC,Curry House,2101 S MAIN ST,WAKE FOREST,NC,27587,35.94802112,-78.53310077,19199857244
2044559.80827782,755826.355337128,1447137,D901E036-1CB6-4754-8D42-2A084CAD5E70,Gulli Boys,1125 HATCHES POND LN,CARY,NC,27519,35.82663773,-78.84968108,19193341068
2101647.17605823,784201.731985211,1447138,DCF22534-B66F-4FA6-BA0B-E4A1AB1F6D53,Bali Hai,9650 STRICKLAND RD,RALEIGH,NC,27615,35.90420107,-78.65677159,19842424314
2053962.7917684,748956.638761625,1447139,DD8EB87B-5056-A20F-9E27773F9EC55564,WHICH WICH OF PARK WEST,3301 VILLAGE MARKET  PL ,MORRISVILLE,NC,27560,35.80772157,-78.81800343,19193808424
2064227.8361989,746414.442730546,1447140,C4553E9B-5056-A20B-FA4FB9041A1AB192,KOI RAMEN,919 N HARRISON AVE ,CARY,NC,27513,35.80068085,-78.78340203,19193778088
2118373.69378623,759528.5729983,1447141,2811715F-5056-A20F-9EB68E0177AA97AC,Carnitas La Barca,2259 New Hope Church RD ,RALEIGH,NC,27604,35.83624718,-78.60062749,19196361182
2091018.06313014,752341.510272712,1447142,9EB5799B-5056-A20B-FA184ACDE6225AFF,Chick-Fil-A #03376,3770 LAKE BOONE TRL ,RALEIGH,NC,27607,35.81676997,-78.692995,19194202471
2064646.88686998,736467.268727303,1447143,677F646A-A911-8B2C-D0CE870B433C1A39,"Istanbul Restaurant &amp; Cafe",914 Kildaire Farm RD ,CARY,NC,27511-3923,35.77335058,-78.7820625,19196519608
2038254.92653064,740889.111261547,1447144,EEDD6E0C-5056-A20B-FAF767348EDDA88F,DUNKIN BASKIN ROBBINS HWY 55 CARY,2740 NC HWY 55 ,CARY,NC,27519,35.78562539,-78.87101554,19193034334
2070309.19116214,744247.828297377,1447145,624E1A49-5056-A20F-9EA9B2081BE6ECFD,Refuel 103,1205 NE Maynard RD ,CARY,NC,27513-4175,35.79469038,-78.76291117,19194660308
2075719.28336032,730419.661728054,1447146,96B1E699-5056-A20B-FABE4E907252E88B,Jersey Mike's Subs,280  Meeting ST ,CARY,NC,27518,35.75666346,-78.74478781,19192330036
2104597.31418681,740432.567227125,1447147,20C92572-EE38-69EF-5D9980D4DD49FF33,Wonderland Tapas and Cocktails,222-103 Glenwood AVE ,RALEIGH,NC,27603,35.78392897,-78.64733509,19196152621
